{'province': '黑龙江省', 'city': '佳木斯市', 'county': '桦南县', 'latitude': '46.29557', 'longitude': '130.62389'},{'province': '江苏省', 'city': '南京市', 'county': '雨花台区', 'latitude': '31.95014', 'longitude': '118.68954'},{'province': '贵州省', 'city': '黔西南布依族苗族自治州', 'county': '安龙县', 'latitude': '25.21144', 'longitude': '105.3158'},{'province': '河南省', 'city': '洛阳市', 'county': '新安县', 'latitude': '34.83012', 'longitude': '112.1242'},{'province': '山东省', 'city': '聊城市', 'county': '莘县', 'latitude': '36.21056', 'longitude': '115.5725'},{'province': '四川省', 'city': '泸州市', 'county': '泸县', 'latitude': '29.15135', 'longitude': '105.49217'},{'province': '山东省', 'city': '济南市', 'county': '济阳县', 'latitude': '36.98', 'longitude': '117.18'},{'province': '河南省', 'city': '平顶山市', 'county': '新华区', 'latitude': '33.76889', 'longitude': '113.307'},{'province': '河北省', 'city': '石家庄市', 'county': '井陉县', 'latitude': '38.031', 'longitude': '114.134'},{'province': '山东省', 'city': '济宁市', 'county': '曲阜市', 'latitude': '35.62111', 'longitude': '116.96528'},{'province': '陝西省', 'city': '西安市', 'county': '雁塔区', 'latitude': '34.18889', 'longitude': '108.93278'},{'province': '江苏省', 'city': '徐州市', 'county': '云龙区', 'latitude': '34.24215', 'longitude': '117.23418'},{'province': '江西省', 'city': '宜春市', 'county': '宜丰县', 'latitude': '28.46481', 'longitude': '114.77775'},{'province': '黑龙江省', 'city': '齐齐哈尔市', 'county': '依安县', 'latitude': '47.67951', 'longitude': '125.31187'},{'province': '山东省', 'city': '烟台市', 'county': '蓬莱市', 'latitude': '37.64806', 'longitude': '120.82639'},{'province': '内蒙古自治区', 'city': '呼和浩特市', 'county': '清水河县', 'latitude': '39.91779', 'longitude': '111.68687'},{'province': '西藏自治区', 'city': '林芝地区', 'county': '朗县', 'latitude': '28.9781', 'longitude': '93.13331'},{'province': '海南省', 'city': '海南省', 'county': '琼中黎族苗族自治县', 'latitude': '19.03278', 'longitude': '109.85111'},{'province': '陝西省', 'city': '延安市', 'county': '志丹县', 'latitude': '36.73908', 'longitude': '108.64567'},{'province': '广东省', 'city': '佛山市', 'county': '三水区', 'latitude': '23.15917', 'longitude': '112.88361'},{'province': '四川省', 'city': '绵阳市', 'county': '三台县', 'latitude': '31.11961', 'longitude': '105.02254'},{'province': '安徽省', 'city': '合肥市', 'county': '庐江县', 'latitude': '31.2603', 'longitude': '117.32021'},{'province': '广东省', 'city': '汕头市', 'county': '澄海区', 'latitude': '23.49546', 'longitude': '116.78426'},{'province': '河南省', 'city': '南阳市', 'county': '社旗县', 'latitude': '32.97636', 'longitude': '112.98898'},{'province': '西藏自治区', 'city': '日喀则地区', 'county': '仁布县', 'latitude': '29.2392', 'longitude': '89.99959'},{'province': '山西省', 'city': '长治市', 'county': '壶关县', 'latitude': '35.97369', 'longitude': '113.33629'},{'province': '湖南省', 'city': '郴州市', 'county': '永兴县', 'latitude': '26.21126', 'longitude': '113.18593'},{'province': '青海省', 'city': '果洛藏族自治州', 'county': '久治县', 'latitude': '33.45931', 'longitude': '100.99649'},{'province': '山东省', 'city': '淄博市', 'county': '张店区', 'latitude': '36.73944', 'longitude': '118.10389'},{'province': '新疆维吾尔自治区', 'city': '和田地区', 'county': '民丰县', 'latitude': '37.25428', 'longitude': '83.21759'},{'province': '安徽省', 'city': '芜湖市', 'county': '繁昌县', 'latitude': '31.10856', 'longitude': '118.20531'},{'province': '河南省', 'city': '周口市', 'county': '郸城县', 'latitude': '33.63685', 'longitude': '115.29789'},{'province': '江苏省', 'city': '南通市', 'county': '海门市', 'latitude': '31.99981', 'longitude': '121.36072'},{'province': '河南省', 'city': '漯河市', 'county': '舞阳县', 'latitude': '33.54669', 'longitude': '113.67979'},{'province': '青海省', 'city': '西宁市', 'county': '城北区', 'latitude': '36.63674', 'longitude': '101.69923'},{'province': '陝西省', 'city': '宝鸡市', 'county': '陈仓区', 'latitude': '34.30611', 'longitude': '107.3875'},{'province': '重庆市', 'city': '重庆市', 'county': '武隆县', 'latitude': '29.37537', 'longitude': '107.70421'},{'province': '安徽省', 'city': '亳州市', 'county': '蒙城县', 'latitude': '33.20824', 'longitude': '116.6071'},{'province': '新疆维吾尔自治区', 'city': '阿克苏地区', 'county': '拜城县', 'latitude': '42.03635', 'longitude': '81.93527'},{'province': '甘肃省', 'city': '甘南藏族自治州', 'county': '迭部县', 'latitude': '33.99057', 'longitude': '103.5502'},{'province': '陝西省', 'city': '咸阳市', 'county': '泾阳县', 'latitude': '34.57361', 'longitude': '108.76306'},{'province': '安徽省', 'city': '蚌埠市', 'county': '禹会区', 'latitude': '32.91975', 'longitude': '117.32804'},{'province': '西藏自治区', 'city': '日喀则地区', 'county': '定日县', 'latitude': '28.47611', 'longitude': '87.01428'},{'province': '黑龙江省', 'city': '黑龙江省', 'county': '松岭区', 'latitude': '50.82356', 'longitude': '124.2807'},{'province': '黑龙江省', 'city': '鸡西市', 'county': '鸡冠区', 'latitude': '45.28778', 'longitude': '130.93692'},{'province': '贵州省', 'city': '黔南布依族苗族自治州', 'county': '都匀市', 'latitude': '26.19008', 'longitude': '107.44955'},{'province': '湖北省', 'city': '宜昌市', 'county': '宜昌县', 'latitude': '30.77111', 'longitude': '111.32148'},{'province': '河南省', 'city': '周口市', 'county': '西华县', 'latitude': '33.78452', 'longitude': '114.49666'},{'province': '河北省', 'city': '沧州市', 'county': '黄骅市', 'latitude': '38.36667', 'longitude': '117.33333'},{'province': '江西省', 'city': '赣州市', 'county': '寻乌县', 'latitude': '24.89196', 'longitude': '115.63073'},{'province': '山东省', 'city': '济宁市', 'county': '市中区', 'latitude': '36.57315', 'longitude': '116.94586'},{'province': '河北省', 'city': '保定市', 'county': '北市区', 'latitude': '38.86669', 'longitude': '115.48365'},{'province': '云南省', 'city': '昭通市', 'county': '盐津县', 'latitude': '28.13782', 'longitude': '104.14438'},{'province': '河南省', 'city': '洛阳市', 'county': '嵩县', 'latitude': '34.02488', 'longitude': '112.07559'},{'province': '湖北省', 'city': '武汉市', 'county': '新洲区', 'latitude': '30.86667', 'longitude': '114.77403'},{'province': '云南省', 'city': '玉溪市', 'county': '新平彝族傣族自治县', 'latitude': '24.00038', 'longitude': '101.7443'},{'province': '湖北省', 'city': '十堰市', 'county': '竹溪县', 'latitude': '32.04753', 'longitude': '109.80493'},{'province': '贵州省', 'city': '遵义市', 'county': '余庆县', 'latitude': '27.40086', 'longitude': '107.66442'},{'province': '北京市', 'city': '北京市', 'county': '石景山区', 'latitude': '39.93324', 'longitude': '116.16987'},{'province': '福建省', 'city': '鲤城', 'county': '洛江区', 'latitude': '24.94455', 'longitude': '118.66988'},{'province': '山东省', 'city': '山东省', 'county': '胶南市', 'latitude': '35.87139', 'longitude': '119.87472'},{'province': '广东省', 'city': '湛江市', 'county': '遂溪县', 'latitude': '21.37774', 'longitude': '109.97494'},{'province': '福建省', 'city': '宁德市', 'county': '寿宁县', 'latitude': '27.40269', 'longitude': '119.50209'},{'province': '安徽省', 'city': '六安市', 'county': '霍山县', 'latitude': '31.28649', 'longitude': '116.27459'},{'province': '河南省', 'city': '平顶山市', 'county': '石龙区', 'latitude': '33.88626', 'longitude': '112.88108'},{'province': '内蒙古自治区', 'city': '乌兰察布市', 'county': '兴和县', 'latitude': '40.92223', 'longitude': '113.81535'},{'province': '甘肃省', 'city': '陇南市', 'county': '西和县', 'latitude': '33.91073', 'longitude': '105.35607'},{'province': '浙江省', 'city': '台州市', 'county': '路桥区', 'latitude': '28.54544', 'longitude': '121.44603'},{'province': '青海省', 'city': '玉树藏族自治州', 'county': '治多县', 'latitude': '34.31559', 'longitude': '94.40518'},{'province': '山东省', 'city': '泰安市', 'county': '新泰市', 'latitude': '35.89', 'longitude': '117.56472'},{'province': '甘肃省', 'city': '天水市', 'county': '秦安县', 'latitude': '34.94056', 'longitude': '105.70068'},{'province': '甘肃省', 'city': '定西市', 'county': '陇西县', 'latitude': '35.10008', 'longitude': '104.61959'},{'province': '河南省', 'city': '平顶山市', 'county': '叶县', 'latitude': '33.55052', 'longitude': '113.33834'},{'province': '河南省', 'city': '南阳市', 'county': '淅川县', 'latitude': '32.9806', 'longitude': '111.4415'},{'province': '广东省', 'city': '深圳市', 'county': '龙华区', 'latitude': '22.66031', 'longitude': '114.02667'},{'province': '内蒙古自治区', 'city': '赤峰市', 'county': '敖汉旗', 'latitude': '42.29758', 'longitude': '119.90858'},{'province': '湖南省', 'city': '长沙市', 'county': '天心区', 'latitude': '28.1079', 'longitude': '112.96708'},{'province': '宁夏回族自治区', 'city': '吴忠市', 'county': '红寺堡区', 'latitude': '37.42209', 'longitude': '106.06654'},{'province': '江苏省', 'city': '镇江市', 'county': '丹徒区', 'latitude': '32.12348', 'longitude': '119.47359'},{'province': '辽宁省', 'city': '大连市', 'county': '金州区', 'latitude': '39.04425', 'longitude': '121.58913'},{'province': '吉林省', 'city': '吉林省', 'county': '扶余县', 'latitude': '45.12833', 'longitude': '125.47944'},{'province': '湖南省', 'city': '邵阳市', 'county': '新邵县', 'latitude': '27.40371', 'longitude': '111.51154'},{'province': '山西省', 'city': '运城市', 'county': '万荣县', 'latitude': '35.39125', 'longitude': '110.71407'},{'province': '河北省', 'city': '邯郸市', 'county': '丛台区', 'latitude': '36.615', 'longitude': '114.49889'},{'province': '山东省', 'city': '潍坊市', 'county': '昌邑市', 'latitude': '36.83583', 'longitude': '119.455'},{'province': '浙江省', 'city': '嘉兴市', 'county': '桐乡市', 'latitude': '30.59194', 'longitude': '120.46392'},{'province': '吉林省', 'city': '白城市', 'county': '镇赉县', 'latitude': '45.87202', 'longitude': '123.33286'},{'province': '新疆维吾尔自治区', 'city': '巴音郭楞蒙古自治州', 'county': '和硕县', 'latitude': '42.26667', 'longitude': '86.85'},{'province': '内蒙古自治区', 'city': '鄂尔多斯市', 'county': '准格尔旗', 'latitude': '39.86678', 'longitude': '111.23282'},{'province': '山东省', 'city': '枣庄市', 'county': '峄城区', 'latitude': '34.73417', 'longitude': '117.62667'},{'province': '山西省', 'city': '临汾市', 'county': '乡宁县', 'latitude': '35.90801', 'longitude': '110.91642'},{'province': '浙江省', 'city': '台州市', 'county': '黄岩区', 'latitude': '28.6017', 'longitude': '121.08021'},{'province': '陝西省', 'city': '渭南市', 'county': '华县', 'latitude': '34.41523', 'longitude': '109.78314'},{'province': '山西省', 'city': '忻州市', 'county': '繁峙县', 'latitude': '39.22053', 'longitude': '113.51692'},{'province': '贵州省', 'city': '黔东南苗族侗族自治州', 'county': '镇远县', 'latitude': '27.13499', 'longitude': '108.45421'},{'province': '湖北省', 'city': '黄冈市', 'county': '浠水县', 'latitude': '30.59994', 'longitude': '115.29931'},{'province': '西藏自治区', 'city': '阿里地区', 'county': '改则县', 'latitude': '33.44776', 'longitude': '84.08092'},{'province': '河北省', 'city': '沧州市', 'county': '沧州地区', 'latitude': '38.316', 'longitude': '116.866'},{'province': '山东省', 'city': '临沂市', 'county': '河东区', 'latitude': '35.10528', 'longitude': '118.51778'},{'province': '新疆维吾尔自治区', 'city': '乌鲁木齐市', 'county': '新市区', 'latitude': '43.89881', 'longitude': '87.54573'},{'province': '安徽省', 'city': '阜阳市', 'county': '阜南县', 'latitude': '32.65014', 'longitude': '115.70477'},{'province': '黑龙江省', 'city': '鹤岗市', 'county': '萝北县', 'latitude': '47.733', 'longitude': '130.66148'},{'province': '山东省', 'city': '日照市', 'county': '五莲县', 'latitude': '35.73917', 'longitude': '119.25806'},{'province': '山西省', 'city': '山西省', 'county': '古县', 'latitude': '36.32048', 'longitude': '111.9675'},{'province': '新疆维吾尔自治区', 'city': '阿克苏地区', 'county': '乌什县', 'latitude': '41.24946', 'longitude': '79.29009'},{'province': '西藏自治区', 'city': '昌都市', 'county': '丁青县', 'latitude': '31.68008', 'longitude': '95.25497'},{'province': '山东省', 'city': '泰安市', 'county': '东平县', 'latitude': '35.97472', 'longitude': '116.34139'},{'province': '河南省', 'city': '洛阳市', 'county': '汝阳县', 'latitude': '34.05092', 'longitude': '112.45459'},{'province': '辽宁省', 'city': '辽阳市', 'county': '太子河区', 'latitude': '41.23278', 'longitude': '123.16972'},{'province': '内蒙古自治区', 'city': '乌兰察布市', 'county': '集宁区', 'latitude': '41.03504', 'longitude': '113.107'},{'province': '安徽省', 'city': '安庆市', 'county': '大观区', 'latitude': '30.50894', 'longitude': '117.02092'},{'province': '福建省', 'city': '三明市', 'county': '建宁县', 'latitude': '26.80511', 'longitude': '116.76387'},{'province': '江西省', 'city': '萍乡市', 'county': '芦溪县', 'latitude': '27.57664', 'longitude': '114.02694'},{'province': '贵州省', 'city': '铜仁地区', 'county': '万山特区', 'latitude': '27.50721', 'longitude': '109.25339'},{'province': '安徽省', 'city': '六安市', 'county': '金寨县', 'latitude': '31.47778', 'longitude': '115.79829'},{'province': '湖南省', 'city': '常德市', 'county': '安乡县', 'latitude': '29.40917', 'longitude': '112.17194'},{'province': '广东省', 'city': '广州市', 'county': '花都区', 'latitude': '23.37722', 'longitude': '113.19611'},{'province': '广西壮族自治区', 'city': '桂林市', 'county': '资源县', 'latitude': '26.05608', 'longitude': '110.58502'},{'province': '山西省', 'city': '晋城市', 'county': '陵川县', 'latitude': '35.66794', 'longitude': '113.31359'},{'province': '黑龙江省', 'city': '佳木斯市', 'county': '桦川县', 'latitude': '47.04955', 'longitude': '130.89282'},{'province': '陝西省', 'city': '西安市', 'county': '灞桥区', 'latitude': '34.27743', 'longitude': '109.06334'},{'province': '山西省', 'city': '临汾市', 'county': '永和县', 'latitude': '36.71584', 'longitude': '110.62063'},{'province': '陝西省', 'city': '渭南市', 'county': '合阳县', 'latitude': '35.20583', 'longitude': '110.13139'},{'province': '山东省', 'city': '潍坊市', 'county': '寿光市', 'latitude': '36.98389', 'longitude': '118.85833'},{'province': '广西壮族自治区', 'city': '钦州市', 'county': '钦北区', 'latitude': '22.11859', 'longitude': '108.65719'},{'province': '内蒙古自治区', 'city': '包头市', 'county': '石拐区', 'latitude': '40.67915', 'longitude': '110.27891'},{'province': '陝西省', 'city': '渭南市', 'county': '韩城市', 'latitude': '35.57528', 'longitude': '110.36139'},{'province': '贵州省', 'city': '铜仁地区', 'county': '江口县', 'latitude': '27.80336', 'longitude': '108.76896'},{'province': '四川省', 'city': '阿坝藏族羌族自治州', 'county': '马尔康县', 'latitude': '31.91487', 'longitude': '102.20306'},{'province': '辽宁省', 'city': '沈阳市', 'county': '东陵区', 'latitude': '41.75361', 'longitude': '123.46417'},{'province': '河南省', 'city': '新乡市', 'county': '辉县市', 'latitude': '35.52564', 'longitude': '113.69764'},{'province': '江苏省', 'city': '江苏省', 'county': '下关区', 'latitude': '32.10113', 'longitude': '118.74781'},{'province': '辽宁省', 'city': '葫芦岛市', 'county': '连山区', 'latitude': '40.80583', 'longitude': '120.81972'},{'province': '河南省', 'city': '漯河市', 'county': '源汇区', 'latitude': '33.53863', 'longitude': '113.92122'},{'province': '内蒙古自治区', 'city': '通辽市', 'county': '科尔沁区', 'latitude': '43.62642', 'longitude': '122.26975'},{'province': '山东省', 'city': '临沂市', 'county': '费县', 'latitude': '35.2375', 'longitude': '117.97167'},{'province': '安徽省', 'city': '马鞍山市', 'county': '含山县', 'latitude': '31.63168', 'longitude': '118.01103'},{'province': '云南省', 'city': '楚雄彝族自治州', 'county': '牟定县', 'latitude': '25.3471', 'longitude': '101.56713'},{'province': '河北省', 'city': '邢台市', 'county': '宁晋县', 'latitude': '37.611', 'longitude': '114.912'},{'province': '湖南省', 'city': '怀化市', 'county': '麻阳苗族自治县', 'latitude': '27.7721', 'longitude': '109.69217'},{'province': '湖北省', 'city': '荆州市', 'county': '洪湖市', 'latitude': '30.01266', 'longitude': '113.52924'},{'province': '河南省', 'city': '安阳市', 'county': '龙安区', 'latitude': '36.08833', 'longitude': '114.33056'},{'province': '湖北省', 'city': '荆州市', 'county': '监利县', 'latitude': '29.91584', 'longitude': '113.07932'},{'province': '江苏省', 'city': '江苏省', 'county': '白下区', 'latitude': '32.02241', 'longitude': '118.82645'},{'province': '浙江省', 'city': '衢州市', 'county': '常山县', 'latitude': '28.95968', 'longitude': '118.5096'},{'province': '甘肃省', 'city': '天水市', 'county': '秦州区', 'latitude': '34.34974', 'longitude': '105.59636'},{'province': '贵州省', 'city': '黔东南苗族侗族自治州', 'county': '凯里市', 'latitude': '26.64678', 'longitude': '107.95062'},{'province': '河北省', 'city': '邢台市', 'county': '广宗县', 'latitude': '37.06', 'longitude': '115.15'},{'province': '四川省', 'city': '德阳市', 'county': '绵竹市', 'latitude': '31.41342', 'longitude': '104.17712'},{'province': '江苏省', 'city': '南京市', 'county': '玄武区', 'latitude': '32.07091', 'longitude': '118.84066'},{'province': '青海省', 'city': '黄南藏族自治州', 'county': '泽库县', 'latitude': '35.12279', 'longitude': '101.47472'},{'province': '吉林省', 'city': '长春市', 'county': '二道区', 'latitude': '43.86384', 'longitude': '125.37629'},{'province': '贵州省', 'city': '黔西南布依族苗族自治州', 'county': '望谟县', 'latitude': '25.2687', 'longitude': '106.0841'},{'province': '安徽省', 'city': '阜阳市', 'county': '临泉县', 'latitude': '32.90599', 'longitude': '115.32038'},{'province': '陝西省', 'city': '渭南市', 'county': '蒲城县', 'latitude': '34.96219', 'longitude': '109.66063'},{'province': '湖南省', 'city': '邵阳市', 'county': '双清区', 'latitude': '27.20357', 'longitude': '111.48426'},{'province': '湖南省', 'city': '怀化市', 'county': '新晃侗族自治县', 'latitude': '27.2347', 'longitude': '109.10899'},{'province': '湖北省', 'city': '荆门市', 'county': '钟祥市', 'latitude': '31.24658', 'longitude': '112.62195'},{'province': '云南省', 'city': '楚雄彝族自治州', 'county': '永仁县', 'latitude': '26.12294', 'longitude': '101.58128'},{'province': '河北省', 'city': '邢台市', 'county': '任县', 'latitude': '37.122', 'longitude': '114.67'},{'province': '天津市', 'city': '天津市', 'county': '静海县', 'latitude': '38.85512', 'longitude': '116.98825'},{'province': '广东省', 'city': '韶关市', 'county': '仁化县', 'latitude': '25.14933', 'longitude': '113.79586'},{'province': '黑龙江省', 'city': '大庆市', 'county': '肇州县', 'latitude': '45.73316', 'longitude': '125.24285'},{'province': '新疆维吾尔自治区', 'city': '乌鲁木齐市', 'county': '米东区', 'latitude': '44.42117', 'longitude': '87.66553'},{'province': '安徽省', 'city': '安徽省', 'county': '休宁县', 'latitude': '29.68221', 'longitude': '118.09753'},{'province': '青海省', 'city': '海东市', 'county': '民和回族土族自治县', 'latitude': '36.15623', 'longitude': '102.75305'},{'province': '河北省', 'city': '沧州市', 'county': '任丘市', 'latitude': '38.71667', 'longitude': '116.08333'},{'province': '吉林省', 'city': '长春市', 'county': '南关区', 'latitude': '43.86214', 'longitude': '125.34138'},{'province': '云南省', 'city': '红河哈尼族彝族自治州', 'county': '建水县', 'latitude': '23.63062', 'longitude': '102.88387'},{'province': '陝西省', 'city': '西安市', 'county': '周至县', 'latitude': '33.95212', 'longitude': '108.14538'},{'province': '湖北省', 'city': '黄冈市', 'county': '麻城市', 'latitude': '31.31911', 'longitude': '115.10771'},{'province': '江苏省', 'city': '连云港市', 'county': '海州区', 'latitude': '34.59543', 'longitude': '119.13163'},{'province': '河北省', 'city': '邯郸市', 'county': '磁县', 'latitude': '36.36667', 'longitude': '114.38333'},{'province': '山西省', 'city': '忻州市', 'county': '五寨县', 'latitude': '39.01149', 'longitude': '111.761'},{'province': '新疆维吾尔自治区', 'city': '和田地区', 'county': '墨玉县', 'latitude': '37.28333', 'longitude': '79.7'},{'province': '北京市', 'city': '北京市', 'county': '西城區', 'latitude': '39.93317', 'longitude': '116.37337'},{'province': '湖北省', 'city': '荆州市', 'county': '松滋市', 'latitude': '30.09645', 'longitude': '111.71437'},{'province': '西藏自治区', 'city': '林芝地区', 'county': '林芝县', 'latitude': '29.66419', 'longitude': '94.37119'},{'province': '海南省', 'city': '海南省', 'county': '文昌市', 'latitude': '19.74389', 'longitude': '110.77139'},{'province': '江苏省', 'city': '淮安市', 'county': '连水县', 'latitude': '33.87188', 'longitude': '119.30204'},{'province': '河南省', 'city': '安阳市', 'county': '滑县', 'latitude': '35.47302', 'longitude': '114.66942'},{'province': '西藏自治区', 'city': '山南地区', 'county': '札囊县', 'latitude': '29.25912', 'longitude': '91.41273'},{'province': '甘肃省', 'city': '定西市', 'county': '岷县', 'latitude': '34.4349', 'longitude': '104.17566'},{'province': '四川省', 'city': '凉山彝族自治州', 'county': '昭觉县', 'latitude': '28.06439', 'longitude': '102.78168'},{'province': '天津市', 'city': '天津市', 'county': '津南区', 'latitude': '38.99611', 'longitude': '117.38818'},{'province': '江西省', 'city': '赣州市', 'county': '大余县', 'latitude': '25.42428', 'longitude': '114.36831'},{'province': '山东省', 'city': '临沂市', 'county': '临沭县', 'latitude': '34.88528', 'longitude': '118.63861'},{'province': '黑龙江省', 'city': '伊春市', 'county': '五营区', 'latitude': '48.18139', 'longitude': '129.28868'},{'province': '四川省', 'city': '乐山市', 'county': '五通桥区', 'latitude': '29.42116', 'longitude': '103.78742'},{'province': '河南省', 'city': '洛阳市', 'county': '瀍河回族区', 'latitude': '34.705', 'longitude': '112.52528'},{'province': '广西壮族自治区', 'city': '南宁市', 'county': '青秀区', 'latitude': '22.79105', 'longitude': '108.49216'},{'province': '湖南省', 'city': '株洲 市', 'county': '石峰区', 'latitude': '27.86019', 'longitude': '113.11391'},{'province': '广东省', 'city': '汕头市', 'county': '潮陽区', 'latitude': '23.2661', 'longitude': '116.59611'},{'province': '云南省', 'city': '昭通市', 'county': '永善县', 'latitude': '27.92895', 'longitude': '103.56199'},{'province': '西藏自治区', 'city': '日喀则地区', 'county': '康马县', 'latitude': '28.45848', 'longitude': '89.61345'},{'province': '北京市', 'city': '北京市', 'county': '怀柔区', 'latitude': '40.63036', 'longitude': '116.58059'},{'province': '河北省', 'city': '邯郸市', 'county': '临漳县', 'latitude': '36.33333', 'longitude': '114.66667'},{'province': '福建省', 'city': '闽都', 'county': '马尾区', 'latitude': '26.01054', 'longitude': '119.46296'},{'province': '云南省', 'city': '大理白族自治州', 'county': '洱源县', 'latitude': '26.11667', 'longitude': '99.95'},{'province': '浙江省', 'city': '台州市', 'county': '仙居县', 'latitude': '28.73615', 'longitude': '120.62934'},{'province': '河南省', 'city': '商丘市', 'county': '永城市', 'latitude': '33.96552', 'longitude': '116.32132'},{'province': '吉林省', 'city': '长春市', 'county': '绿园区', 'latitude': '43.90048', 'longitude': '125.26026'},{'province': '新疆维吾尔自治区', 'city': '喀什地区', 'county': '麦盖提县', 'latitude': '38.88333', 'longitude': '77.58333'},{'province': '云南省', 'city': '保山市', 'county': '腾冲县', 'latitude': '25.32508', 'longitude': '98.46133'},{'province': '黑龙江省', 'city': '伊春市', 'county': '汤旺河区', 'latitude': '48.42919', 'longitude': '129.5501'},{'province': '吉林省', 'city': '白城市', 'county': '洮南市', 'latitude': '45.42711', 'longitude': '122.45138'},{'province': '青海省', 'city': '玉树藏族自治州', 'county': '曲麻莱县', 'latitude': '34.94737', 'longitude': '95.20384'},{'province': '辽宁省', 'city': '朝阳市', 'county': '凌源市', 'latitude': '40.95829', 'longitude': '119.26195'},{'province': '陝西省', 'city': '延安市', 'county': '黄龙县', 'latitude': '35.72861', 'longitude': '109.89722'},{'province': '河北省', 'city': '承德市', 'county': '双桥区', 'latitude': '40.96667', 'longitude': '117.90833'},{'province': '湖南省', 'city': '怀化市', 'county': '芷江侗族自治县', 'latitude': '27.35029', 'longitude': '109.59047'},{'province': '四川省', 'city': '眉山市', 'county': '青神县', 'latitude': '29.81798', 'longitude': '103.81994'},{'province': '广东省', 'city': '河源市', 'county': '东源县', 'latitude': '23.97091', 'longitude': '114.8444'},{'province': '河南省', 'city': '周口市', 'county': '淮阳县', 'latitude': '33.70709', 'longitude': '114.88521'},{'province': '浙江省', 'city': '温州市', 'county': '泰顺县', 'latitude': '27.51992', 'longitude': '119.86109'},{'province': '西藏自治区', 'city': '昌都市', 'county': '边坝县', 'latitude': '30.90188', 'longitude': '94.62596'},{'province': '黑龙江省', 'city': '黑河市', 'county': '北安市', 'latitude': '48.27376', 'longitude': '126.64263'},{'province': '浙江省', 'city': '杭州市', 'county': '临安市', 'latitude': '30.23333', 'longitude': '119.71667'},{'province': '新疆维吾尔自治区', 'city': '博尔塔拉蒙古自治州', 'county': '博乐市', 'latitude': '44.98', 'longitude': '81.95'},{'province': '福建省', 'city': '三明市', 'county': '大田县', 'latitude': '25.76027', 'longitude': '117.83742'},{'province': '福建省', 'city': '鲤城', 'county': '泉港区', 'latitude': '25.1608', 'longitude': '118.83993'},{'province': '云南省', 'city': '昆明市', 'county': '五华区', 'latitude': '24.94636', 'longitude': '102.67143'},{'province': '广东省', 'city': '肇庆市', 'county': '德庆县', 'latitude': '23.30112', 'longitude': '111.97696'},{'province': '广东省', 'city': '云浮市', 'county': '郁南县', 'latitude': '23.02975', 'longitude': '111.61734'},{'province': '山东省', 'city': '德州市', 'county': '齐河县', 'latitude': '36.799', 'longitude': '116.74'},{'province': '安徽省', 'city': '安徽省', 'county': '歙县', 'latitude': '29.81712', 'longitude': '118.59748'},{'province': '河北省', 'city': '廊坊市', 'county': '霸州市', 'latitude': '39.1', 'longitude': '116.4'},{'province': '河南省', 'city': '信阳市', 'county': '浉河区', 'latitude': '32.0178', 'longitude': '113.99333'},{'province': '浙江省', 'city': '宁波市', 'county': '慈溪市', 'latitude': '30.23224', 'longitude': '121.2887'},{'province': '湖南省', 'city': '岳阳市', 'county': '岳阳楼区', 'latitude': '29.30677', 'longitude': '113.11681'},{'province': '山东省', 'city': '德州市', 'county': '德城区', 'latitude': '37.45046', 'longitude': '116.33039'},{'province': '安徽省', 'city': '安庆市', 'county': '迎江区', 'latitude': '30.49234', 'longitude': '117.04453'},{'province': '四川省', 'city': '达州市', 'county': '大竹县', 'latitude': '30.70521', 'longitude': '107.27452'},{'province': '广东省', 'city': '肇庆市', 'county': '高要市', 'latitude': '22.98512', 'longitude': '112.38624'},{'province': '福建省', 'city': '厦门市', 'county': '湖里区', 'latitude': '24.50943', 'longitude': '118.09782'},{'province': '江西省', 'city': '赣州市', 'county': '石城县', 'latitude': '26.28207', 'longitude': '116.34598'},{'province': '江西省', 'city': '抚州市', 'county': '临川区', 'latitude': '27.9344', 'longitude': '116.34614'},{'province': '山西省', 'city': '山西省', 'county': '阳泉矿区', 'latitude': '37.85408', 'longitude': '113.53825'},{'province': '福建省', 'city': '闽都', 'county': '平潭县', 'latitude': '25.51667', 'longitude': '119.79253'},{'province': '云南省', 'city': '红河哈尼族彝族自治州', 'county': '泸西县', 'latitude': '24.50955', 'longitude': '103.74888'},{'province': '内蒙古自治区', 'city': '呼伦贝尔市', 'county': '新巴尔虎左旗', 'latitude': '48.26691', 'longitude': '118.27205'},{'province': '广西壮族自治区', 'city': '桂林市', 'county': '临桂县', 'latitude': '25.2', 'longitude': '110.2'},{'province': '江苏省', 'city': '常州市', 'county': '金坛市', 'latitude': '31.71782', 'longitude': '119.50257'},{'province': '江西省', 'city': '九江市', 'county': '武宁县', 'latitude': '29.26262', 'longitude': '115.09535'},{'province': '陝西省', 'city': '汉中市', 'county': '佛坪县', 'latitude': '33.52222', 'longitude': '107.9325'},{'province': '江西省', 'city': '吉安市', 'county': '永丰县', 'latitude': '27.08493', 'longitude': '115.68452'},{'province': '甘肃省', 'city': '白银市', 'county': '景泰县', 'latitude': '37.10567', 'longitude': '104.05523'},{'province': '新疆维吾尔自治区', 'city': '阿克苏地区', 'county': '温宿县', 'latitude': '41.59257', 'longitude': '80.46727'},{'province': '陝西省', 'city': '商洛市', 'county': '柞水县', 'latitude': '33.68139', 'longitude': '109.27528'},{'province': '天津市', 'city': '天津市', 'county': '河西区', 'latitude': '39.08212', 'longitude': '117.22672'},{'province': '广东省', 'city': '江门市', 'county': '新会区', 'latitude': '22.43708', 'longitude': '113.00718'},{'province': '安徽省', 'city': '安徽省', 'county': '黄山区', 'latitude': '30.28917', 'longitude': '118.13009'},{'province': '重庆市', 'city': '重庆市', 'county': '开县', 'latitude': '31.27264', 'longitude': '108.37849'},{'province': '安徽省', 'city': '合肥市', 'county': '巢湖市', 'latitude': '31.4313', 'longitude': '117.8323'},{'province': '广西壮族自治区', 'city': '玉林市', 'county': '博白县', 'latitude': '22.21667', 'longitude': '109.91667'},{'province': '山西省', 'city': '大同市', 'county': '矿区', 'latitude': '40.02677', 'longitude': '113.15602'},{'province': '四川省', 'city': '广元市', 'county': '苍溪县', 'latitude': '31.92032', 'longitude': '106.04278'},{'province': '湖北省', 'city': '襄樊市', 'county': '老河口市', 'latitude': '32.43633', 'longitude': '111.75639'},{'province': '江苏省', 'city': '江苏省', 'county': '平江区', 'latitude': '31.32084', 'longitude': '120.62646'},{'province': '湖南省', 'city': '益阳市', 'county': '桃江县', 'latitude': '28.43494', 'longitude': '111.98784'},{'province': '云南省', 'city': '临沧市', 'county': '云县', 'latitude': '24.34195', 'longitude': '100.27433'},{'province': '湖北省', 'city': '咸宁市', 'county': '通山县', 'latitude': '29.62716', 'longitude': '114.70321'},{'province': '福建省', 'city': '漳州市', 'county': '平和县', 'latitude': '24.36222', 'longitude': '117.30556'},{'province': '内蒙古自治区', 'city': '呼伦贝尔市', 'county': '莫力达瓦达斡尔族自治旗', 'latitude': '50.66157', 'longitude': '121.80197'},{'province': '黑龙江省', 'city': '鹤岗市', 'county': '东山区', 'latitude': '47.33138', 'longitude': '130.31479'},{'province': '四川省', 'city': '成都市', 'county': '新都区', 'latitude': '30.75325', 'longitude': '104.2523'},{'province': '河北省', 'city': '秦皇岛市', 'county': '卢龙县', 'latitude': '39.91692', 'longitude': '118.98288'},{'province': '吉林省', 'city': '吉林市', 'county': '丰满区', 'latitude': '43.78127', 'longitude': '126.55074'},{'province': '陝西省', 'city': '榆林市', 'county': '横山县', 'latitude': '37.86722', 'longitude': '109.4075'},{'province': '河北省', 'city': '沧州市', 'county': '盐山县', 'latitude': '38.05', 'longitude': '117.2'},{'province': '内蒙古自治区', 'city': '呼和浩特市', 'county': '和林格尔县', 'latitude': '40.38612', 'longitude': '111.81886'},{'province': '四川省', 'city': '成都市', 'county': '青白江区', 'latitude': '30.87419', 'longitude': '104.26047'},{'province': '四川省', 'city': '自贡市', 'county': '荣县', 'latitude': '29.41306', 'longitude': '104.34379'},{'province': '西藏自治区', 'city': '日喀则地区', 'county': '定结县', 'latitude': '28.27541', 'longitude': '87.93258'},{'province': '湖南省', 'city': '张家界市', 'county': '慈利县', 'latitude': '29.40693', 'longitude': '110.92101'},{'province': '山西省', 'city': '吕梁市', 'county': '文水县', 'latitude': '37.43431', 'longitude': '111.99809'},{'province': '山东省', 'city': '淄博市', 'county': '临淄区', 'latitude': '36.79417', 'longitude': '118.32528'},{'province': '辽宁省', 'city': '锦州市', 'county': '义县', 'latitude': '41.58417', 'longitude': '121.25444'},{'province': '河南省', 'city': '洛阳市', 'county': '洛龙区', 'latitude': '34.63677', 'longitude': '112.43933'},{'province': '新疆维吾尔自治区', 'city': '昌吉回族自治州', 'county': '玛纳斯县', 'latitude': '44.35746', 'longitude': '86.37154'},{'province': '福建省', 'city': '龙岩市', 'county': '永定区', 'latitude': '24.75436', 'longitude': '116.81672'},{'province': '西藏自治区', 'city': '昌都市', 'county': '左贡县', 'latitude': '29.62133', 'longitude': '97.72375'},{'province': '广东省', 'city': '汕头市', 'county': '潮南区', 'latitude': '23.22167', 'longitude': '116.44278'},{'province': '河北省', 'city': '承德市', 'county': '承德縣', 'latitude': '40.96221', 'longitude': '118.13746'},{'province': '安徽省', 'city': '滁州市', 'county': '来安县', 'latitude': '32.49249', 'longitude': '118.46846'},{'province': '甘肃省', 'city': '平凉市', 'county': '庄浪县', 'latitude': '35.21936', 'longitude': '106.07556'},{'province': '山西省', 'city': '忻州市', 'county': '定襄县', 'latitude': '38.52454', 'longitude': '113.00191'},{'province': '江苏省', 'city': '徐州市', 'county': '泉山区', 'latitude': '34.22548', 'longitude': '117.17498'},{'province': '内蒙古自治区', 'city': '巴彦淖尔市', 'county': '五原县', 'latitude': '41.00733', 'longitude': '108.11221'},{'province': '宁夏回族自治区', 'city': '银川市', 'county': '金凤区', 'latitude': '38.47477', 'longitude': '106.24021'},{'province': '江西省', 'city': '九江市', 'county': '星子县', 'latitude': '29.3596', 'longitude': '115.94286'},{'province': '安徽省', 'city': '阜阳市', 'county': '颍州区', 'latitude': '32.90249', 'longitude': '115.83016'},{'province': '西藏自治区', 'city': '日喀则地区', 'county': '萨迦县', 'latitude': '28.77752', 'longitude': '88.34074'},{'province': '河北省', 'city': '保定市', 'county': '望都县', 'latitude': '38.71667', 'longitude': '115.15'},{'province': '海南省', 'city': '海南省', 'county': '东方市', 'latitude': '18.99361', 'longitude': '108.84083'},{'province': '贵州省', 'city': '黔南布依族苗族自治州', 'county': '平塘县', 'latitude': '25.80102', 'longitude': '107.20927'},{'province': '湖北省', 'city': '恩施土家族苗族自治州', 'county': '来凤县', 'latitude': '29.50443', 'longitude': '109.39921'},{'province': '广西壮族自治区', 'city': '河池市', 'county': '凤山县', 'latitude': '24.53333', 'longitude': '107.05'},{'province': '河北省', 'city': '承德市', 'county': '隆化县', 'latitude': '41.50439', 'longitude': '117.60959'},{'province': '贵州省', 'city': '黔南布依族苗族自治州', 'county': '惠水县', 'latitude': '26.01982', 'longitude': '106.74041'},{'province': '山东省', 'city': '淄博市', 'county': '博山区', 'latitude': '36.47639', 'longitude': '117.9025'},{'province': '江西省', 'city': '赣州市', 'county': '安远县', 'latitude': '25.24598', 'longitude': '115.37121'},{'province': '宁夏回族自治区', 'city': '固原市', 'county': '隆德县', 'latitude': '35.58665', 'longitude': '106.06326'},{'province': '河南省', 'city': '平顶山市', 'county': '卫东区', 'latitude': '33.78038', 'longitude': '113.35095'},{'province': '新疆维吾尔自治区', 'city': '塔城地区', 'county': '托里县', 'latitude': '45.68753', 'longitude': '83.90996'},{'province': '福建省', 'city': '龙岩市', 'county': '武平县', 'latitude': '25.1357', 'longitude': '116.08231'},{'province': '四川省', 'city': '乐山市', 'county': '沙湾区', 'latitude': '29.42442', 'longitude': '103.51449'},{'province': '黑龙江省', 'city': '双鸭山市', 'county': '饶河县', 'latitude': '47.13028', 'longitude': '133.61799'},{'province': '辽宁省', 'city': '丹东市', 'county': '凤城市', 'latitude': '40.52861', 'longitude': '124.04944'},{'province': '河北省', 'city': '承德市', 'county': '兴隆县', 'latitude': '40.40002', 'longitude': '117.7265'},{'province': '江西省', 'city': '抚州市', 'county': '宜黄县', 'latitude': '27.39263', 'longitude': '116.21347'},{'province': '云南省', 'city': '临沧市', 'county': '镇康县', 'latitude': '23.89288', 'longitude': '98.99242'},{'province': '四川省', 'city': '雅安市', 'county': '天全县', 'latitude': '30.08619', 'longitude': '102.59264'},{'province': '云南省', 'city': '大理白族自治州', 'county': '云龙县', 'latitude': '25.96319', 'longitude': '99.3457'},{'province': '黑龙江省', 'city': '黑河市', 'county': '嫩江县', 'latitude': '49.34575', 'longitude': '125.9677'},{'province': '湖北省', 'city': '孝感市', 'county': '安陆市', 'latitude': '31.31822', 'longitude': '113.65348'},{'province': '云南省', 'city': '大理白族自治州', 'county': '漾濞彝族自治县', 'latitude': '25.64888', 'longitude': '99.89682'},{'province': '吉林省', 'city': '四平市', 'county': '梨树县', 'latitude': '43.38389', 'longitude': '124.44722'},{'province': '广东省', 'city': '茂名市', 'county': '信宜市', 'latitude': '22.48982', 'longitude': '111.04284'},{'province': '安徽省', 'city': '宣城市', 'county': '绩溪县', 'latitude': '30.15238', 'longitude': '118.67569'},{'province': '山西省', 'city': '临汾市', 'county': '尧都区', 'latitude': '36.12249', 'longitude': '111.49538'},{'province': '吉林省', 'city': '白城市', 'county': '大安市', 'latitude': '45.41972', 'longitude': '123.76167'},{'province': '浙江省', 'city': '宁波市', 'county': '海曙区', 'latitude': '29.85', 'longitude': '121.54667'},{'province': '四川省', 'city': '乐山市', 'county': '井研县', 'latitude': '29.62024', 'longitude': '104.05196'},{'province': '河北省', 'city': '邢台市', 'county': '清河县', 'latitude': '37.072', 'longitude': '115.66'},{'province': '四川省', 'city': '四川省', 'county': '达县', 'latitude': '31.11631', 'longitude': '107.36631'},{'province': '四川省', 'city': '凉山彝族自治州', 'county': '布拖县', 'latitude': '27.61826', 'longitude': '102.76471'},{'province': '湖南省', 'city': '湘西土家族苗族自治州', 'county': '龙山县', 'latitude': '29.46039', 'longitude': '109.43537'},{'province': '河北省', 'city': '廊坊市', 'county': '文安县', 'latitude': '38.86', 'longitude': '116.46'},{'province': '河北省', 'city': '秦皇岛市', 'county': '抚宁县', 'latitude': '39.98496', 'longitude': '119.38562'},{'province': '湖南省', 'city': '永州市', 'county': '新田县', 'latitude': '25.89139', 'longitude': '112.19139'},{'province': '甘肃省', 'city': '定西市', 'county': '漳县', 'latitude': '34.70616', 'longitude': '104.29047'},{'province': '新疆维吾尔自治区', 'city': '新疆维吾尔自治区', 'county': '阿图什市', 'latitude': '39.66736', 'longitude': '76.16805'},{'province': '云南省', 'city': '红河哈尼族彝族自治州', 'county': '屏边苗族自治县', 'latitude': '23.09035', 'longitude': '103.8072'},{'province': '河南省', 'city': '商丘市', 'county': '民权县', 'latitude': '34.68746', 'longitude': '115.16904'},{'province': '四川省', 'city': '宜宾市', 'county': '江安县', 'latitude': '28.69019', 'longitude': '105.10617'},{'province': '吉林省', 'city': '四平市', 'county': '铁西区', 'latitude': '43.15519', 'longitude': '124.36098'},{'province': '广东省', 'city': '韶关市', 'county': '新丰县', 'latitude': '24.05772', 'longitude': '114.15302'},{'province': '河北省', 'city': '沧州市', 'county': '运河区', 'latitude': '38.31167', 'longitude': '116.85'},{'province': '海南省', 'city': '海南省', 'county': '昌江黎族自治县', 'latitude': '19.19436', 'longitude': '109.04275'},{'province': '重庆市', 'city': '重庆市', 'county': '南川市', 'latitude': '29.14522', 'longitude': '107.15355'},{'province': '新疆维吾尔自治区', 'city': '喀什地区', 'county': '英吉沙镇', 'latitude': '38.92213', 'longitude': '76.1668'},{'province': '新疆维吾尔自治区', 'city': '新疆维吾尔自治区', 'county': '阿克陶县', 'latitude': '39.08333', 'longitude': '75.98333'},{'province': '山东省', 'city': '烟台市', 'county': '芝罘区', 'latitude': '37.51687', 'longitude': '121.35259'},{'province': '辽宁省', 'city': '鞍山市', 'county': '立山区', 'latitude': '41.14167', 'longitude': '123.01722'},{'province': '河北省', 'city': '保定市', 'county': '安新县', 'latitude': '38.91667', 'longitude': '115.93333'},{'province': '安徽省', 'city': '滁州市', 'county': '琅琊区', 'latitude': '32.287', 'longitude': '118.29807'},{'province': '四川省', 'city': '遂宁市', 'county': '蓬溪县', 'latitude': '30.7271', 'longitude': '105.6477'},{'province': '广西壮族自治区', 'city': '钦州市', 'county': '钦州市', 'latitude': '21.95', 'longitude': '108.61667'},{'province': '云南省', 'city': '玉溪市', 'county': '华宁县', 'latitude': '24.26404', 'longitude': '103.01806'},{'province': '新疆维吾尔自治区', 'city': '阿勒泰地区', 'county': '富蘊縣', 'latitude': '46.9922', 'longitude': '89.52518'},{'province': '四川省', 'city': '成都市', 'county': '龙泉驿区', 'latitude': '30.55048', 'longitude': '104.26956'},{'province': '四川省', 'city': '乐山市', 'county': '沐川县', 'latitude': '29.03139', 'longitude': '103.76401'},{'province': '广东省', 'city': '江门市', 'county': '鹤山市', 'latitude': '22.66376', 'longitude': '112.80011'},{'province': '陝西省', 'city': '咸阳市', 'county': '永寿县', 'latitude': '34.81389', 'longitude': '108.16833'},{'province': '江苏省', 'city': '南京市', 'county': '高淳县', 'latitude': '31.33527', 'longitude': '118.96277'},{'province': '湖南省', 'city': '衡阳市', 'county': '常宁市', 'latitude': '26.96461', 'longitude': '112.61168'},{'province': '贵州省', 'city': '黔西南布依族苗族自治州', 'county': '册亨县', 'latitude': '24.96433', 'longitude': '105.7943'},{'province': '山东省', 'city': '德州市', 'county': '武城县', 'latitude': '37.21724', 'longitude': '116.08287'},{'province': '新疆维吾尔自治区', 'city': '乌鲁木齐市', 'county': '沙依巴克區', 'latitude': '43.80121', 'longitude': '87.58541'},{'province': '河北省', 'city': '邢台市', 'county': '临西县', 'latitude': '36.86667', 'longitude': '115.53333'},{'province': '甘肃省', 'city': '临夏回族自治州', 'county': '临夏市', 'latitude': '35.58234', 'longitude': '103.20548'},{'province': '江苏省', 'city': '淮安市', 'county': '盱眙县', 'latitude': '32.91963', 'longitude': '118.54769'},{'province': '黑龙江省', 'city': '黑龙江省', 'county': '永红区', 'latitude': '46.82462', 'longitude': '130.39947'},{'province': '山西省', 'city': '山西省', 'county': '长治郊区', 'latitude': '36.19191', 'longitude': '113.107'},{'province': '北京市', 'city': '北京市', 'county': '通州区', 'latitude': '39.80881', 'longitude': '116.72402'},{'province': '贵州省', 'city': '遵义市', 'county': '绥阳县', 'latitude': '28.09506', 'longitude': '107.23238'},{'province': '甘肃省', 'city': '酒泉市', 'county': '玉门市', 'latitude': '40.19619', 'longitude': '97.45453'},{'province': '湖南省', 'city': '娄底市', 'county': '新化县', 'latitude': '27.83896', 'longitude': '111.28338'},{'province': '湖北省', 'city': '十堰市', 'county': '竹山县', 'latitude': '32.31647', 'longitude': '110.15638'},{'province': '四川省', 'city': '凉山彝族自治州', 'county': '喜德县', 'latitude': '28.19538', 'longitude': '102.32121'},{'province': '河南省', 'city': '商丘市', 'county': '睢阳区', 'latitude': '34.38576', 'longitude': '115.61945'},{'province': '湖北省', 'city': '黄冈市', 'county': '武穴市', 'latitude': '30.02411', 'longitude': '115.62743'},{'province': '云南省', 'city': '怒江傈僳族自治州', 'county': '贡山独龙族怒族自治县', 'latitude': '27.84166', 'longitude': '98.67004'},{'province': '内蒙古自治区', 'city': '锡林郭勒盟', 'county': '阿巴嘎旗', 'latitude': '44.16333', 'longitude': '114.88161'},{'province': '湖北省', 'city': '黄冈市', 'county': '蕲春县', 'latitude': '30.45412', 'longitude': '115.64703'},{'province': '福建省', 'city': '南平市', 'county': '顺昌县', 'latitude': '26.88664', 'longitude': '117.88096'},{'province': '广东省', 'city': '汕头市', 'county': '南澳县', 'latitude': '23.43066', 'longitude': '117.04015'},{'province': '河北省', 'city': '石家庄市', 'county': '裕华区', 'latitude': '38', 'longitude': '114.53611'},{'province': '宁夏回族自治区', 'city': '石嘴山市', 'county': '大武口区', 'latitude': '39.08357', 'longitude': '106.30722'},{'province': '内蒙古自治区', 'city': '锡林郭勒盟', 'county': '正镶白旗', 'latitude': '42.53226', 'longitude': '114.99251'},{'province': '四川省', 'city': '宜宾市', 'county': '高县', 'latitude': '28.50036', 'longitude': '104.51667'},{'province': '四川省', 'city': '绵阳市', 'county': '江油市', 'latitude': '31.89905', 'longitude': '104.86212'},{'province': '广东省', 'city': '惠州市', 'county': '博罗县', 'latitude': '23.37927', 'longitude': '114.2847'},{'province': '西藏自治区', 'city': '那曲地区', 'county': '安多县', 'latitude': '32.32257', 'longitude': '91.22713'},{'province': '甘肃省', 'city': '张掖市', 'county': '肃南裕固族自治县', 'latitude': '39.05405', 'longitude': '99.09189'},{'province': '湖南省', 'city': '岳阳市', 'county': '临湘市', 'latitude': '29.49503', 'longitude': '113.54174'},{'province': '甘肃省', 'city': '天水市', 'county': '武山县', 'latitude': '34.6369', 'longitude': '104.8849'},{'province': '陝西省', 'city': '榆林市', 'county': '米脂县', 'latitude': '37.83417', 'longitude': '110.19'},{'province': '贵州省', 'city': '铜仁地区', 'county': '印江土家族苗族自治县', 'latitude': '27.88784', 'longitude': '108.46203'},{'province': '山东省', 'city': '威海市', 'county': '环翠区', 'latitude': '37.38361', 'longitude': '122.12'},{'province': '安徽省', 'city': '滁州市', 'county': '凤阳县', 'latitude': '32.7777', 'longitude': '117.6071'},{'province': '新疆维吾尔自治区', 'city': '阿勒泰地区', 'county': '布尔津县', 'latitude': '48.3672', 'longitude': '87.23694'},{'province': '河北省', 'city': '邯郸市', 'county': '鸡泽县', 'latitude': '36.9', 'longitude': '114.86667'},{'province': '河北省', 'city': '衡水市', 'county': '安平县', 'latitude': '38.21667', 'longitude': '115.53333'},{'province': '黑龙江省', 'city': '绥化市', 'county': '安达市', 'latitude': '46.41301', 'longitude': '125.37855'},{'province': '福建省', 'city': '三明市', 'county': '尤溪县', 'latitude': '26.1207', 'longitude': '118.24666'},{'province': '四川省', 'city': '成都市', 'county': '大邑县', 'latitude': '30.62286', 'longitude': '103.4294'},{'province': '西藏自治区', 'city': '拉萨市', 'county': '当雄县', 'latitude': '30.51789', 'longitude': '90.76277'},{'province': '四川省', 'city': '达州市', 'county': '开江县', 'latitude': '31.08073', 'longitude': '107.88497'},{'province': '吉林省', 'city': '通化市', 'county': '东昌区', 'latitude': '41.69667', 'longitude': '125.95667'},{'province': '辽宁省', 'city': '铁岭市', 'county': '清河区', 'latitude': '42.48889', 'longitude': '124.28167'},{'province': '云南省', 'city': '保山市', 'county': '施甸县', 'latitude': '24.7191', 'longitude': '99.2029'},{'province': '云南省', 'city': '昆明市', 'county': '石林彝族自治县', 'latitude': '24.74775', 'longitude': '103.38942'},{'province': '广西壮族自治区', 'city': '南宁市', 'county': '宾阳县', 'latitude': '23.2', 'longitude': '108.8'},{'province': '河北省', 'city': '唐山市', 'county': '开平区', 'latitude': '39.70587', 'longitude': '118.27805'},{'province': '湖南省', 'city': '常德市', 'county': '澧县', 'latitude': '29.78583', 'longitude': '111.67179'},{'province': '四川省', 'city': '绵阳市', 'county': '北川羌族自治县', 'latitude': '31.97191', 'longitude': '104.29346'},{'province': '四川省', 'city': '广元市', 'county': '利州区', 'latitude': '32.46298', 'longitude': '105.88139'},{'province': '湖南省', 'city': '邵阳市', 'county': '城步苗族自治县', 'latitude': '26.33167', 'longitude': '110.30406'},{'province': '山东省', 'city': '菏泽市', 'county': '东明县', 'latitude': '35.19228', 'longitude': '115.07094'},{'province': '新疆维吾尔自治区', 'city': '和田地区', 'county': '和田市', 'latitude': '37.15655', 'longitude': '79.91842'},{'province': '河南省', 'city': '洛阳市', 'county': '栾川县', 'latitude': '33.90635', 'longitude': '111.63808'},{'province': '河北省', 'city': '河北省', 'county': '唐海县', 'latitude': '39.26651', 'longitude': '118.38654'},{'province': '江西省', 'city': '南昌市', 'county': '东湖区', 'latitude': '28.7', 'longitude': '115.85'},{'province': '浙江省', 'city': '湖州市', 'county': '吴兴区', 'latitude': '30.85878', 'longitude': '120.11734'},{'province': '山东省', 'city': '青岛市', 'county': '李沧区', 'latitude': '36.17981', 'longitude': '120.41849'},{'province': '内蒙古自治区', 'city': '通辽市', 'county': '科左中', 'latitude': '44.04943', 'longitude': '122.5159'},{'province': '浙江省', 'city': '金华市', 'county': '兰溪市', 'latitude': '29.27567', 'longitude': '119.52287'},{'province': '四川省', 'city': '成都市', 'county': '双流县', 'latitude': '30.46108', 'longitude': '104.01897'},{'province': '山西省', 'city': '长治市', 'county': '黎城县', 'latitude': '36.63478', 'longitude': '113.37874'},{'province': '河南省', 'city': '濮阳市', 'county': '台前县', 'latitude': '35.95741', 'longitude': '115.85049'},{'province': '山西省', 'city': '忻州市', 'county': '偏关县', 'latitude': '39.45777', 'longitude': '111.66906'},{'province': '广西壮族自治区', 'city': '来宾市', 'county': '象州县', 'latitude': '24.02484', 'longitude': '109.75147'},{'province': '广东省', 'city': '清远市', 'county': '乳源瑶族自治县', 'latitude': '24.87853', 'longitude': '113.18837'},{'province': '重庆市', 'city': '-', 'county': '荣昌县', 'latitude': '29.46722', 'longitude': '105.50158'},{'province': '宁夏回族自治区', 'city': '吴忠市', 'county': '青铜峡市', 'latitude': '37.94344', 'longitude': '105.96501'},{'province': '江苏省', 'city': '江苏省', 'county': '泰县', 'latitude': '32.51667', 'longitude': '120.15'},{'province': '河北省', 'city': '保定市', 'county': '清苑县', 'latitude': '38.76667', 'longitude': '115.48333'},{'province': '安徽省', 'city': '合肥市', 'county': '瑶海区', 'latitude': '31.84208', 'longitude': '117.30701'},{'province': '山西省', 'city': '晋中市', 'county': '榆次区', 'latitude': '37.61784', 'longitude': '112.84673'},{'province': '辽宁省', 'city': '沈阳市', 'county': '大东区', 'latitude': '41.82139', 'longitude': '123.50278'},{'province': '河南省', 'city': '许昌市', 'county': '禹州市', 'latitude': '34.20388', 'longitude': '113.37874'},{'province': '西藏自治区', 'city': '山南地区', 'county': '穷结县', 'latitude': '29.03588', 'longitude': '91.62281'},{'province': '内蒙古自治区', 'city': '赤峰市', 'county': '元宝山区', 'latitude': '42.04887', 'longitude': '119.28282'},{'province': '广西壮族自治区', 'city': '来宾市', 'county': '武宣镇', 'latitude': '23.6', 'longitude': '109.65'},{'province': '内蒙古自治区', 'city': '赤峰市', 'county': '林西县', 'latitude': '43.61683', 'longitude': '118.04245'},{'province': '四川省', 'city': '眉山市', 'county': '彭山县', 'latitude': '30.25131', 'longitude': '103.84901'},{'province': '陝西省', 'city': '汉中市', 'county': '勉县', 'latitude': '33.20056', 'longitude': '106.65'},{'province': '吉林省', 'city': '白山市', 'county': '江源县', 'latitude': '42.06619', 'longitude': '126.83865'},{'province': '江苏省', 'city': '盐城市', 'county': '大丰区', 'latitude': '33.21021', 'longitude': '120.55451'},{'province': '云南省', 'city': '玉溪市', 'county': '峨山彝族自治县', 'latitude': '24.20824', 'longitude': '102.21143'},{'province': '浙江省', 'city': '宁波市', 'county': '余姚市', 'latitude': '30.07205', 'longitude': '121.15208'},{'province': '河南省', 'city': '洛阳市', 'county': '孟津县', 'latitude': '34.82412', 'longitude': '112.4755'},{'province': '云南省', 'city': '怒江傈僳族自治州', 'county': '泸水县', 'latitude': '26.20326', 'longitude': '98.87247'},{'province': '广西壮族自治区', 'city': '崇左市', 'county': '凭祥市', 'latitude': '22.09', 'longitude': '106.75'},{'province': '山西省', 'city': '晋中市', 'county': '平遥县', 'latitude': '37.13939', 'longitude': '112.285'},{'province': '四川省', 'city': '甘孜藏族自治州', 'county': '泸定县', 'latitude': '29.78624', 'longitude': '102.06762'},{'province': '山东省', 'city': '枣庄市', 'county': '台儿庄区', 'latitude': '34.56472', 'longitude': '117.65806'},{'province': '浙江省', 'city': '金华市', 'county': '武义县', 'latitude': '28.9', 'longitude': '119.8'},{'province': '山西省', 'city': '太原市', 'county': '杏花岭区', 'latitude': '37.88056', 'longitude': '112.56657'},{'province': '黑龙江省', 'city': '齐齐哈尔市', 'county': '克东县', 'latitude': '47.95409', 'longitude': '126.43835'},{'province': '陝西省', 'city': '榆林市', 'county': '靖边县', 'latitude': '37.48215', 'longitude': '108.80463'},{'province': '安徽省', 'city': '蚌埠市', 'county': '坏远县', 'latitude': '33.04826', 'longitude': '117.01941'},{'province': '福建省', 'city': '三明市', 'county': '明溪县', 'latitude': '26.33577', 'longitude': '117.23762'},{'province': '浙江省', 'city': '绍兴市', 'county': '绍兴县', 'latitude': '29.89361', 'longitude': '120.51797'},{'province': '黑龙江省', 'city': '齐齐哈尔市', 'county': '龙江县', 'latitude': '47.20415', 'longitude': '123.17785'},{'province': '湖北省', 'city': '武汉市', 'county': '江岸区', 'latitude': '30.59972', 'longitude': '114.30944'},{'province': '黑龙江省', 'city': '大庆市', 'county': '林甸县', 'latitude': '47.19438', 'longitude': '124.89281'},{'province': '江苏省', 'city': '泰州市', 'county': '高港区', 'latitude': '32.31854', 'longitude': '119.88179'},{'province': '云南省', 'city': '大理白族自治州', 'county': '鹤庆县', 'latitude': '26.29627', 'longitude': '100.27293'},{'province': '河南省', 'city': '焦作市', 'county': '温县', 'latitude': '34.94792', 'longitude': '113.05215'},{'province': '陝西省', 'city': '安康市', 'county': '镇坪县', 'latitude': '31.90889', 'longitude': '109.4675'},{'province': '山东省', 'city': '济宁市', 'county': '嘉祥县', 'latitude': '35.44583', 'longitude': '116.30111'},{'province': '云南省', 'city': '昭通市', 'county': '彝良县', 'latitude': '27.68117', 'longitude': '104.18033'},{'province': '湖南省', 'city': '郴州市', 'county': '北湖区', 'latitude': '25.74037', 'longitude': '112.96881'},{'province': '河南省', 'city': '洛阳市', 'county': '涧西区', 'latitude': '34.67167', 'longitude': '112.3722'},{'province': '江西省', 'city': '宜春市', 'county': '铜鼓县', 'latitude': '28.62932', 'longitude': '114.3878'},{'province': '云南省', 'city': '楚雄彝族自治州', 'county': '楚雄市', 'latitude': '24.87195', 'longitude': '101.38735'},{'province': '江西省', 'city': '抚州市', 'county': '金溪县', 'latitude': '27.93245', 'longitude': '116.7246'},{'province': '辽宁省', 'city': '大连市', 'county': '长海县', 'latitude': '39.27239', 'longitude': '122.58032'},{'province': '吉林省', 'city': '松原市', 'county': '前郭尔罗斯蒙古族自治县', 'latitude': '44.74056', 'longitude': '124.57472'},{'province': '辽宁省', 'city': '葫芦岛市', 'county': '绥中县', 'latitude': '40.4375', 'longitude': '119.93056'},{'province': '黑龙江省', 'city': '佳木斯市', 'county': '汤原县', 'latitude': '47.0358', 'longitude': '130.01874'},{'province': '浙江省', 'city': '温州市', 'county': '乐清市', 'latitude': '28.2537', 'longitude': '121.00396'},{'province': '黑龙江省', 'city': '黑河市', 'county': '爱辉区', 'latitude': '50.09688', 'longitude': '126.85028'},{'province': '广东省', 'city': '揭阳市', 'county': '普宁市', 'latitude': '23.42853', 'longitude': '116.16902'},{'province': '黑龙江省', 'city': '黑龙江省', 'county': '林口县', 'latitude': '45.3827', 'longitude': '130.09184'},{'province': '江西省', 'city': '南昌市', 'county': '青山湖区', 'latitude': '28.68396', 'longitude': '115.95972'},{'province': '重庆市', 'city': '-', 'county': '巫山县', 'latitude': '31.1171', 'longitude': '109.89561'},{'province': '云南省', 'city': '曲靖市', 'county': '麒麟区', 'latitude': '25.39333', 'longitude': '103.86482'},{'province': '河南省', 'city': '鹤壁市', 'county': '淇滨区', 'latitude': '35.74278', 'longitude': '114.31417'},{'province': '安徽省', 'city': '池州市', 'county': '石台县', 'latitude': '30.19853', 'longitude': '117.56081'},{'province': '湖北省', 'city': '宜昌市', 'county': '秭归县', 'latitude': '30.91876', 'longitude': '110.69763'},{'province': '吉林省', 'city': '辽源市', 'county': '龙山区', 'latitude': '42.90144', 'longitude': '125.13246'},{'province': '四川省', 'city': '阿坝藏族羌族自治州', 'county': '红原县', 'latitude': '32.77647', 'longitude': '102.6526'},{'province': '江西省', 'city': '九江市', 'county': '都昌县', 'latitude': '29.35045', 'longitude': '116.30372'},{'province': '四川省', 'city': '甘孜藏族自治州', 'county': '甘孜县', 'latitude': '32.04519', 'longitude': '99.84016'},{'province': '河北省', 'city': '保定市', 'county': '顺平县', 'latitude': '38.81667', 'longitude': '115.11667'},{'province': '广东省', 'city': '广州市', 'county': '从化市', 'latitude': '23.63054', 'longitude': '113.6651'},{'province': '湖南省', 'city': '永州市', 'county': '江华瑶族自治县', 'latitude': '25.02361', 'longitude': '111.75'},{'province': '辽宁省', 'city': '大连市', 'county': '瓦房店市', 'latitude': '39.7125', 'longitude': '121.75528'},{'province': '山西省', 'city': '长治市', 'county': '平顺县', 'latitude': '36.20333', 'longitude': '113.43667'},{'province': '江苏省', 'city': '徐州市', 'county': '沛县', 'latitude': '34.68737', 'longitude': '116.92484'},{'province': '湖北省', 'city': '黄石市', 'county': '西塞山区', 'latitude': '30.18669', 'longitude': '115.10449'},{'province': '浙江省', 'city': '金华市', 'county': '浦江县', 'latitude': '29.47084', 'longitude': '119.81807'},{'province': '天津市', 'city': '天津市', 'county': '河西区', 'latitude': '39.15927', 'longitude': '117.22301'},{'province': '山西省', 'city': '大同市', 'county': '阳高县', 'latitude': '40.29017', 'longitude': '113.69331'},{'province': '青海省', 'city': '海东市', 'county': '互助土族自治县', 'latitude': '36.80041', 'longitude': '102.13737'},{'province': '四川省', 'city': '宜宾市', 'county': '珙县', 'latitude': '28.20128', 'longitude': '104.76536'},{'province': '安徽省', 'city': '安庆市', 'county': '怀宁县', 'latitude': '30.57478', 'longitude': '116.82635'},{'province': '湖北省', 'city': '湖北省', 'county': '天门市', 'latitude': '30.67361', 'longitude': '113.14486'},{'province': '安徽省', 'city': '阜阳市', 'county': '颍泉区', 'latitude': '32.92506', 'longitude': '115.83415'},{'province': '山东省', 'city': '潍坊市', 'county': '潍城区', 'latitude': '36.70639', 'longitude': '119.05389'},{'province': '山西省', 'city': '晋中市', 'county': '寿阳县', 'latitude': '37.80513', 'longitude': '113.12072'},{'province': '陝西省', 'city': '渭南市', 'county': '潼关县', 'latitude': '34.48639', 'longitude': '110.26361'},{'province': '河北省', 'city': '邯郸市', 'county': '峰峰矿区', 'latitude': '36.44667', 'longitude': '114.2'},{'province': '广东省', 'city': '汕头市', 'county': '濠江区', 'latitude': '23.28247', 'longitude': '116.72471'},{'province': '四川省', 'city': '泸州市', 'county': '江阳区', 'latitude': '28.88019', 'longitude': '105.41033'},{'province': '山东省', 'city': '临沂市', 'county': '莒南县', 'latitude': '35.20139', 'longitude': '118.88722'},{'province': '广西壮族自治区', 'city': '百色市', 'county': '田林县', 'latitude': '24.3', 'longitude': '106.21667'},{'province': '新疆维吾尔自治区', 'city': '喀什地区', 'county': '喀什市', 'latitude': '39.48333', 'longitude': '75.96667'},{'province': '山东省', 'city': '滨州市', 'county': '邹平县', 'latitude': '36.94639', 'longitude': '117.70417'},{'province': '河北省', 'city': '河北省', 'county': '桥东区', 'latitude': '37.08', 'longitude': '114.50889'},{'province': '黑龙江省', 'city': '大庆市', 'county': '让胡路区', 'latitude': '46.65142', 'longitude': '124.79998'},{'province': '四川省', 'city': '内江市', 'county': '东兴区', 'latitude': '29.62419', 'longitude': '105.13662'},{'province': '山东省', 'city': '菏泽市', 'county': '单县', 'latitude': '34.74392', 'longitude': '116.08493'},{'province': '浙江省', 'city': '金华市', 'county': '磐安县', 'latitude': '29.04216', 'longitude': '120.56926'},{'province': '河北省', 'city': '邯郸市', 'county': '馆陶县', 'latitude': '36.61279', 'longitude': '115.28847'},{'province': '山东省', 'city': '淄博市', 'county': '淄川区', 'latitude': '36.60167', 'longitude': '117.98583'},{'province': '上海市', 'city': '上海市', 'county': '崇明区', 'latitude': '31.63134', 'longitude': '121.53378'},{'province': '广东省', 'city': '韶关市', 'county': '翁源县', 'latitude': '24.41152', 'longitude': '114.05403'},{'province': '河南省', 'city': '南阳市', 'county': '内乡县', 'latitude': '33.2101', 'longitude': '111.85531'},{'province': '安徽省', 'city': '池州市', 'county': '贵池区', 'latitude': '30.46011', 'longitude': '117.4581'},{'province': '吉林省', 'city': '通化市', 'county': '二道江区', 'latitude': '41.74389', 'longitude': '126.02611'},{'province': '新疆维吾尔自治区', 'city': '塔城地区', 'county': '和布克赛尔', 'latitude': '46.39262', 'longitude': '86.2176'},{'province': '福建省', 'city': '厦门市', 'county': '翔安区', 'latitude': '24.62', 'longitude': '118.24'},{'province': '陝西省', 'city': '西安市', 'county': '未央区', 'latitude': '34.2775', 'longitude': '108.91778'},{'province': '江苏省', 'city': '泰州市', 'county': '兴化市', 'latitude': '32.93403', 'longitude': '120.0308'},{'province': '广西壮族自治区', 'city': '桂林市', 'county': '雁山区', 'latitude': '25.24081', 'longitude': '110.29006'},{'province': '广东省', 'city': '肇庆市', 'county': '四会市', 'latitude': '23.44479', 'longitude': '112.67131'},{'province': '吉林省', 'city': '四平市', 'county': '公主岭市', 'latitude': '43.80556', 'longitude': '124.75806'},{'province': '河南省', 'city': '鹤壁市', 'county': '山城区', 'latitude': '35.87944', 'longitude': '114.19833'},{'province': '湖南省', 'city': '湖南省', 'county': '照山市', 'latitude': '27.88245', 'longitude': '112.70821'},{'province': '江西省', 'city': '上饶市', 'county': '玉山县', 'latitude': '28.77381', 'longitude': '118.12277'},{'province': '浙江省', 'city': '宁波市', 'county': '北仑区', 'latitude': '29.92361', 'longitude': '121.83389'},{'province': '广西壮族自治区', 'city': '柳州市', 'county': '鱼峰区', 'latitude': '24.3225', 'longitude': '109.45097'},{'province': '四川省', 'city': '广安市', 'county': '武胜县', 'latitude': '30.36372', 'longitude': '106.23757'},{'province': '河北省', 'city': '保定市', 'county': '涞源县', 'latitude': '39.31667', 'longitude': '114.68333'},{'province': '广西壮族自治区', 'city': '梧州市', 'county': '藤县', 'latitude': '23.38333', 'longitude': '110.9'},{'province': '河北省', 'city': '保定市', 'county': '安国市', 'latitude': '38.41667', 'longitude': '115.31667'},{'province': '江西省', 'city': '九江市', 'county': '永修县', 'latitude': '29.12813', 'longitude': '115.65707'},{'province': '新疆维吾尔自治区', 'city': '和田地区', 'county': '和田县', 'latitude': '36.08931', 'longitude': '79.49572'},{'province': '湖北省', 'city': '宜昌市', 'county': '长阳土家族自治县', 'latitude': '30.47261', 'longitude': '110.86605'},{'province': '山东省', 'city': '聊城市', 'county': '茌平县', 'latitude': '36.56417', 'longitude': '116.26111'},{'province': '黑龙江省', 'city': '哈尔滨市', 'county': '通河县', 'latitude': '46.23863', 'longitude': '128.78689'},{'province': '黑龙江省', 'city': '齐齐哈尔市', 'county': '泰来县', 'latitude': '46.5848', 'longitude': '123.58691'},{'province': '天津市', 'city': '天津市', 'county': '南开区', 'latitude': '39.10909', 'longitude': '117.14947'},{'province': '河南省', 'city': '驻马店市', 'county': '驿城区', 'latitude': '32.94142', 'longitude': '113.93606'},{'province': '云南省', 'city': '西双版纳傣族自治州', 'county': '景洪市', 'latitude': '22.07406', 'longitude': '100.91451'},{'province': '河北省', 'city': '廊坊市', 'county': '固安县', 'latitude': '39.45', 'longitude': '116.3'},{'province': '福建省', 'city': '闽都', 'county': '永泰县', 'latitude': '25.84633', 'longitude': '118.81306'},{'province': '河北省', 'city': '邯郸市', 'county': '大名县', 'latitude': '36.2', 'longitude': '115.3'},{'province': '四川省', 'city': '遂宁市', 'county': '安居区', 'latitude': '30.32495', 'longitude': '105.43484'},{'province': '江苏省', 'city': '江苏省', 'county': '江都市', 'latitude': '32.5403', 'longitude': '119.67425'},{'province': '安徽省', 'city': '宿州市', 'county': '砀山县', 'latitude': '34.4419', 'longitude': '116.47171'},{'province': '江苏省', 'city': '无锡市', 'county': '南长区', 'latitude': '31.56103', 'longitude': '120.30675'},{'province': '河北省', 'city': '张家口市', 'county': '桥东区', 'latitude': '40.78876', 'longitude': '114.88706'},{'province': '辽宁省', 'city': '抚顺市', 'county': '清原满族自治县', 'latitude': '42.09667', 'longitude': '124.89528'},{'province': '江西省', 'city': '南昌市', 'county': '南昌县', 'latitude': '28.55138', 'longitude': '115.93882'},{'province': '山东省', 'city': '山东省', 'county': '市中区', 'latitude': '34.87387', 'longitude': '117.55263'},{'province': '浙江省', 'city': '台州市', 'county': '玉环市', 'latitude': '28.18462', 'longitude': '121.27246'},{'province': '云南省', 'city': '昭通市', 'county': '绥江县', 'latitude': '28.51902', 'longitude': '103.94176'},{'province': '广东省', 'city': '广东省', 'county': '清新县', 'latitude': '23.88876', 'longitude': '112.84868'},{'province': '江西省', 'city': '萍乡市', 'county': '湘东区', 'latitude': '27.535', 'longitude': '113.69652'},{'province': '四川省', 'city': '甘孜藏族自治州', 'county': '新龙县', 'latitude': '31.09415', 'longitude': '100.30982'},{'province': '湖南省', 'city': '衡阳市', 'county': '石鼓区', 'latitude': '26.88008', 'longitude': '112.6092'},{'province': '河北省', 'city': '邢台市', 'county': '南和县', 'latitude': '36.96667', 'longitude': '114.68333'},{'province': '四川省', 'city': '南充市', 'county': '仪陇县', 'latitude': '31.41958', 'longitude': '106.50787'},{'province': '四川省', 'city': '凉山彝族自治州', 'county': '会东县', 'latitude': '26.59934', 'longitude': '102.60131'},{'province': '山东省', 'city': '菏泽市', 'county': '成武县', 'latitude': '34.98175', 'longitude': '115.96791'},{'province': '湖北省', 'city': '黄冈市', 'county': '黄梅县', 'latitude': '30.12098', 'longitude': '116.03251'},{'province': '湖南省', 'city': '衡阳市', 'county': '衡东县', 'latitude': '27.08519', 'longitude': '113.03181'},{'province': '甘肃省', 'city': '天水市', 'county': '麦积区', 'latitude': '34.3883', 'longitude': '106.14428'},{'province': '甘肃省', 'city': '酒泉市', 'county': '金塔县', 'latitude': '40.45567', 'longitude': '99.42816'},{'province': '内蒙古自治区', 'city': '乌兰察布市', 'county': '察哈尔右翼中旗', 'latitude': '41.31012', 'longitude': '112.55741'},{'province': '湖北省', 'city': '恩施土家族苗族自治州', 'county': '宣恩县', 'latitude': '29.86999', 'longitude': '109.54876'},{'province': '河北省', 'city': '河北省', 'county': '威县', 'latitude': '37.08965', 'longitude': '115.39393'},{'province': '四川省', 'city': '攀枝花市', 'county': '米易县', 'latitude': '26.96898', 'longitude': '101.80975'},{'province': '广东省', 'city': '佛山市', 'county': '南海区', 'latitude': '23.03222', 'longitude': '113.14278'},{'province': '四川省', 'city': '成都市', 'county': '成华区', 'latitude': '30.66489', 'longitude': '104.1192'},{'province': '山西省', 'city': '临汾市', 'county': '霍州市', 'latitude': '36.58627', 'longitude': '111.82131'},{'province': '黑龙江省', 'city': '哈尔滨市', 'county': '宾县', 'latitude': '45.63737', 'longitude': '127.70283'},{'province': '江苏省', 'city': '宿迁市', 'county': '宿城区', 'latitude': '33.975', 'longitude': '118.3'},{'province': '河北省', 'city': '邢台市', 'county': '沙河市', 'latitude': '36.8599', 'longitude': '114.50777'},{'province': '广东省', 'city': '阳江市', 'county': '阳春市', 'latitude': '22.20582', 'longitude': '111.65022'},{'province': '河北省', 'city': '保定市', 'county': '高阳县', 'latitude': '38.7', 'longitude': '115.78333'},{'province': '甘肃省', 'city': '定西市', 'county': '定西县', 'latitude': '35.63845', 'longitude': '104.62818'},{'province': '浙江省', 'city': '杭州市', 'county': '下城区', 'latitude': '30.28249', 'longitude': '120.17558'},{'province': '吉林省', 'city': '白山市', 'county': '长白朝鲜族自治县', 'latitude': '41.56361', 'longitude': '127.92667'},{'province': '安徽省', 'city': '滁州市', 'county': '明光市', 'latitude': '32.80458', 'longitude': '118.09488'},{'province': '山东省', 'city': '菏泽市', 'county': '郓城县', 'latitude': '35.61972', 'longitude': '115.85556'},{'province': '河北省', 'city': '张家口市', 'county': '宣化县', 'latitude': '40.56455', 'longitude': '115.02651'},{'province': '吉林省', 'city': '延边朝鲜族自治州', 'county': '图们市', 'latitude': '42.96667', 'longitude': '129.81667'},{'province': '河北省', 'city': '承德市', 'county': '滦平县', 'latitude': '40.91493', 'longitude': '117.3817'},{'province': '安徽省', 'city': '安庆市', 'county': '枞阳县', 'latitude': '30.85557', 'longitude': '117.39431'},{'province': '辽宁省', 'city': '大连市', 'county': '普兰店市', 'latitude': '39.65944', 'longitude': '122.19472'},{'province': '河南省', 'city': '开封市', 'county': '兰考县', 'latitude': '34.8775', 'longitude': '114.96583'},{'province': '山西省', 'city': '晋城市', 'county': '晋城城区', 'latitude': '35.50677', 'longitude': '112.83779'},{'province': '四川省', 'city': '阿坝藏族羌族自治州', 'county': '金川县', 'latitude': '31.51787', 'longitude': '101.8455'},{'province': '陝西省', 'city': '安康市', 'county': '岚皋县', 'latitude': '32.23878', 'longitude': '108.8759'},{'province': '青海省', 'city': '西宁市', 'county': '湟中县', 'latitude': '36.58755', 'longitude': '101.54457'},{'province': '河北省', 'city': '河北省', 'county': '桥东区', 'latitude': '38.04167', 'longitude': '114.53333'},{'province': '山西省', 'city': '运城市', 'county': '稷山县', 'latitude': '35.5824', 'longitude': '110.95596'},{'province': '陝西省', 'city': '西安市', 'county': '临潼区', 'latitude': '34.36915', 'longitude': '109.1915'},{'province': '河北省', 'city': '邯郸市', 'county': '成安县', 'latitude': '36.41667', 'longitude': '114.68333'},{'province': '西藏自治区', 'city': '那曲地区', 'county': '索县', 'latitude': '31.61374', 'longitude': '94.3444'},{'province': '广西壮族自治区', 'city': '贵港市', 'county': '平南县', 'latitude': '23.55', 'longitude': '110.38333'},{'province': '福建省', 'city': '漳州市', 'county': '南靖县', 'latitude': '24.65354', 'longitude': '117.29688'},{'province': '黑龙江省', 'city': '双鸭山市', 'county': '宝清县', 'latitude': '46.34701', 'longitude': '132.24802'},{'province': '江西省', 'city': '九江市', 'county': '瑞昌市', 'latitude': '29.62091', 'longitude': '115.47701'},{'province': '吉林省', 'city': '吉林市', 'county': '桦甸市', 'latitude': '43.10639', 'longitude': '126.975'},{'province': '内蒙古自治区', 'city': '兴安盟', 'county': '科尔沁右翼前旗', 'latitude': '46.34203', 'longitude': '121.26321'},{'province': '广东省', 'city': '江门市', 'county': '恩平市', 'latitude': '22.25492', 'longitude': '112.27987'},{'province': '重庆市', 'city': '重庆市', 'county': '酉阳土家族苗族自治县', 'latitude': '28.90067', 'longitude': '108.79512'},{'province': '辽宁省', 'city': '沈阳市', 'county': '沈北新区', 'latitude': '42.05056', 'longitude': '123.52083'},{'province': '山东省', 'city': '菏泽市', 'county': '巨野县', 'latitude': '35.30168', 'longitude': '115.99355'},{'province': '江苏省', 'city': '江苏省', 'county': '沧浪区', 'latitude': '31.29543', 'longitude': '120.62353'},{'province': '福建省', 'city': '龙岩市', 'county': '漳平市', 'latitude': '25.344', 'longitude': '117.48958'},{'province': '陝西省', 'city': '延安市', 'county': '延长县', 'latitude': '36.54694', 'longitude': '110.05194'},{'province': '广东省', 'city': '江门市', 'county': '江海区', 'latitude': '22.57694', 'longitude': '113.14667'},{'province': '河南省', 'city': '开封市', 'county': '禹王台区', 'latitude': '34.7829', 'longitude': '114.3447'},{'province': '浙江省', 'city': '绍兴市', 'county': '诸暨市', 'latitude': '29.72035', 'longitude': '120.28927'},{'province': '江苏省', 'city': '无锡市', 'county': '崇安区', 'latitude': '31.58978', 'longitude': '120.32284'},{'province': '北京市', 'city': '北京市', 'county': '房山区', 'latitude': '39.72445', 'longitude': '115.84575'},{'province': '西藏自治区', 'city': '拉萨市', 'county': '林周县', 'latitude': '30.1461', 'longitude': '91.34695'},{'province': '山东省', 'city': '聊城市', 'county': '东昌府区', 'latitude': '36.42194', 'longitude': '116.04389'},{'province': '西藏自治区', 'city': '那曲地区', 'county': '班戈县', 'latitude': '33.21196', 'longitude': '89.56778'},{'province': '贵州省', 'city': '黔西南布依族苗族自治州', 'county': '晴隆县', 'latitude': '25.79306', 'longitude': '105.17918'},{'province': '山东省', 'city': '德州市', 'county': '乐陵市', 'latitude': '37.67528', 'longitude': '117.17806'},{'province': '四川省', 'city': '甘孜藏族自治州', 'county': '康定县', 'latitude': '29.99835', 'longitude': '101.94763'},{'province': '辽宁省', 'city': '朝阳市', 'county': '建平县', 'latitude': '41.83673', 'longitude': '119.6245'},{'province': '湖南省', 'city': '邵阳市', 'county': '北塔区', 'latitude': '27.2153', 'longitude': '111.41095'},{'province': '内蒙古自治区', 'city': '巴彦淖尔市', 'county': '烏拉特中旗', 'latitude': '41.72108', 'longitude': '108.39101'},{'province': '湖南省', 'city': '邵阳市', 'county': '大祥区', 'latitude': '27.18842', 'longitude': '111.40948'},{'province': '山西省', 'city': '吕梁市', 'county': '交城县', 'latitude': '37.65753', 'longitude': '111.83621'},{'province': '浙江省', 'city': '嘉兴市', 'county': '南湖区', 'latitude': '30.74583', 'longitude': '120.77678'},{'province': '广西壮族自治区', 'city': '桂林市', 'county': '秀峰区', 'latitude': '25.27939', 'longitude': '110.28035'},{'province': '新疆维吾尔自治区', 'city': '伊犁哈萨克自治州', 'county': '奎屯市', 'latitude': '44.55134', 'longitude': '85.01358'},{'province': '贵州省', 'city': '遵义市', 'county': '务川仡佬族苗族自治县', 'latitude': '28.66314', 'longitude': '107.913'},{'province': '湖北省', 'city': '湖北省', 'county': '潜江市', 'latitude': '30.35527', 'longitude': '112.79923'},{'province': '黑龙江省', 'city': '大兴安岭地区', 'county': '呼玛县', 'latitude': '51.67277', 'longitude': '126.16591'},{'province': '贵州省', 'city': '安顺市', 'county': '普定县', 'latitude': '26.37786', 'longitude': '105.73086'},{'province': '新疆维吾尔自治区', 'city': '巴音郭楞蒙古自治州', 'county': '焉耆回族自治县', 'latitude': '42.02038', 'longitude': '86.28747'},{'province': '重庆市', 'city': '重庆市', 'county': '合川市', 'latitude': '30.11485', 'longitude': '106.30792'},{'province': '黑龙江省', 'city': '鸡西市', 'county': '麻山区', 'latitude': '45.21062', 'longitude': '130.57166'},{'province': '四川省', 'city': '泸州市', 'county': '纳溪区', 'latitude': '28.73333', 'longitude': '105.45'},{'province': '内蒙古自治区', 'city': '呼和浩特市', 'county': '武川县', 'latitude': '41.10202', 'longitude': '111.44734'},{'province': '黑龙江省', 'city': '伊春市', 'county': '美溪区', 'latitude': '47.65512', 'longitude': '129.12537'},{'province': '内蒙古自治区', 'city': '乌兰察布市', 'county': '凉城县', 'latitude': '40.52135', 'longitude': '112.54406'},{'province': '内蒙古自治区', 'city': '锡林郭勒盟', 'county': '多伦县', 'latitude': '42.21203', 'longitude': '116.54471'},{'province': '河南省', 'city': '许昌市', 'county': '长葛市', 'latitude': '34.22952', 'longitude': '113.84806'},{'province': '云南省', 'city': '文山壮族苗族自治州', 'county': '丘北县', 'latitude': '24.07135', 'longitude': '104.13773'},{'province': '江苏省', 'city': '徐州市', 'county': '邳州市', 'latitude': '34.40145', 'longitude': '117.88871'},{'province': '辽宁省', 'city': '盘锦市', 'county': '兴隆台区', 'latitude': '41.14028', 'longitude': '122.07722'},{'province': '湖南省', 'city': '湘西土家族苗族自治州', 'county': '泸溪县', 'latitude': '28.12143', 'longitude': '109.98214'},{'province': '黑龙江省', 'city': '伊春市', 'county': '伊春区', 'latitude': '47.72822', 'longitude': '128.87737'},{'province': '广东省', 'city': '汕尾市', 'county': '陆河县', 'latitude': '23.25449', 'longitude': '115.61555'},{'province': '黑龙江省', 'city': '牡丹江市', 'county': '西安区', 'latitude': '44.46997', 'longitude': '129.57879'},{'province': '福建省', 'city': '漳州市', 'county': '东山县', 'latitude': '23.7135', 'longitude': '117.42221'},{'province': '湖北省', 'city': '黄冈市', 'county': '罗田县', 'latitude': '31.04662', 'longitude': '115.49627'},{'province': '云南省', 'city': '曲靖市', 'county': '师宗县', 'latitude': '24.71302', 'longitude': '104.06694'},{'province': '四川省', 'city': '泸州市', 'county': '合江县', 'latitude': '28.79763', 'longitude': '105.89787'},{'province': '云南省', 'city': '文山壮族苗族自治州', 'county': '麻栗坡县', 'latitude': '23.22953', 'longitude': '104.90717'},{'province': '新疆维吾尔自治区', 'city': '阿克苏地区', 'county': '柯坪县', 'latitude': '40.48065', 'longitude': '79.03722'},{'province': '贵州省', 'city': '遵义市', 'county': '习水县', 'latitude': '28.36247', 'longitude': '106.35656'},{'province': '安徽省', 'city': '六安市', 'county': '霍邱县', 'latitude': '32.16336', 'longitude': '116.17033'},{'province': '河南省', 'city': '信阳市', 'county': '罗山县', 'latitude': '32.03196', 'longitude': '114.43663'},{'province': '河南省', 'city': '驻马店市', 'county': '上蔡县', 'latitude': '33.3061', 'longitude': '114.4238'},{'province': '山东省', 'city': '山东省', 'county': '市中区', 'latitude': '35.40553', 'longitude': '116.57517'},{'province': '福建省', 'city': '鲤城', 'county': '石狮市', 'latitude': '24.72338', 'longitude': '118.70265'},{'province': '山西省', 'city': '忻州市', 'county': '静乐县', 'latitude': '38.39599', 'longitude': '112.08583'},{'province': '青海省', 'city': '玉树藏族自治州', 'county': '称多县', 'latitude': '33.99713', 'longitude': '96.96568'},{'province': '湖北省', 'city': '孝感市', 'county': '应城市', 'latitude': '30.96417', 'longitude': '113.58306'},{'province': '甘肃省', 'city': '甘肃省', 'county': '宁县', 'latitude': '35.56405', 'longitude': '108.10486'},{'province': '吉林省', 'city': '通化市', 'county': '辉南县', 'latitude': '42.52917', 'longitude': '126.345'},{'province': '四川省', 'city': '广安市', 'county': '岳池县', 'latitude': '30.51471', 'longitude': '106.44901'},{'province': '黑龙江省', 'city': '双鸭山市', 'county': '友谊县', 'latitude': '46.76596', 'longitude': '131.80608'},{'province': '广东省', 'city': '河源市', 'county': '源城区', 'latitude': '23.73028', 'longitude': '114.69'},{'province': '青海省', 'city': '海东市', 'county': '循化撒拉族自治县', 'latitude': '35.7011', 'longitude': '102.44042'},{'province': '浙江省', 'city': '杭州市', 'county': '桐庐县', 'latitude': '29.83422', 'longitude': '119.55116'},{'province': '黑龙江省', 'city': '齐齐哈尔市', 'county': '铁锋区', 'latitude': '47.28384', 'longitude': '124.19043'},{'province': '山东省', 'city': '潍坊市', 'county': '高密市', 'latitude': '36.35583', 'longitude': '119.68222'},{'province': '安徽省', 'city': '淮南市', 'county': '凤台县', 'latitude': '32.77509', 'longitude': '116.57458'},{'province': '贵州省', 'city': '铜仁地区', 'county': '石阡县', 'latitude': '27.49001', 'longitude': '108.20554'},{'province': '山东省', 'city': '德州市', 'county': '临邑县', 'latitude': '37.22389', 'longitude': '116.91639'},{'province': '贵州省', 'city': '铜仁地区', 'county': '玉屏侗族自治县', 'latitude': '27.33518', 'longitude': '109.01254'},{'province': '新疆维吾尔自治区', 'city': '阿克苏地区', 'county': '阿瓦提县', 'latitude': '40.04236', 'longitude': '80.44424'},{'province': '贵州省', 'city': '黔南布依族苗族自治州', 'county': '荔波县', 'latitude': '25.40081', 'longitude': '107.90151'},{'province': '内蒙古自治区', 'city': '包头市', 'county': '九原区', 'latitude': '40.61299', 'longitude': '109.96617'},{'province': '四川省', 'city': '成都市', 'county': '新津县', 'latitude': '30.44282', 'longitude': '103.81667'},{'province': '湖南省', 'city': '怀化市', 'county': '通道侗族自治县', 'latitude': '26.24389', 'longitude': '109.68749'},{'province': '宁夏回族自治区', 'city': '银川市', 'county': '西夏区', 'latitude': '38.49193', 'longitude': '106.1397'},{'province': '辽宁省', 'city': '辽阳市', 'county': '文圣区', 'latitude': '41.26442', 'longitude': '123.18732'},{'province': '甘肃省', 'city': '平凉市', 'county': '泾川县', 'latitude': '35.34809', 'longitude': '107.43136'},{'province': '湖南省', 'city': '株洲 市', 'county': '天元区', 'latitude': '27.83379', 'longitude': '113.09534'},{'province': '河南省', 'city': '新乡市', 'county': '牧野区', 'latitude': '35.33111', 'longitude': '113.88889'},{'province': '云南省', 'city': '昭通市', 'county': '昭阳区', 'latitude': '27.40352', 'longitude': '103.61577'},{'province': '黑龙江省', 'city': '齐齐哈尔市', 'county': '甘南县', 'latitude': '47.95536', 'longitude': '123.99458'},{'province': '河南省', 'city': '信阳市', 'county': '固始县', 'latitude': '32.13094', 'longitude': '115.69483'},{'province': '四川省', 'city': '成都市', 'county': '郫县', 'latitude': '30.83432', 'longitude': '103.8817'},{'province': '安徽省', 'city': '淮南市', 'county': '毛集', 'latitude': '32.65', 'longitude': '116.63333'},{'province': '广东省', 'city': '茂名市', 'county': '高州市', 'latitude': '22.05425', 'longitude': '110.93826'},{'province': '陝西省', 'city': '汉中市', 'county': '宁强县', 'latitude': '32.94222', 'longitude': '106.22639'},{'province': '西藏自治区', 'city': '日喀则地区', 'county': '萨噶县', 'latitude': '29.44769', 'longitude': '85.09122'},{'province': '云南省', 'city': '昆明市', 'county': '官渡区', 'latitude': '24.92323', 'longitude': '102.89202'},{'province': '黑龙江省', 'city': '哈尔滨市', 'county': '呼兰区', 'latitude': '45.97647', 'longitude': '126.5924'},{'province': '内蒙古自治区', 'city': '锡林郭勒盟', 'county': '苏尼特右旗', 'latitude': '42.8373', 'longitude': '112.87195'},{'province': '宁夏回族自治区', 'city': '中卫市', 'county': '海原县', 'latitude': '36.60617', 'longitude': '105.70057'},{'province': '贵州省', 'city': '毕节地区', 'county': '赫章县', 'latitude': '27.19286', 'longitude': '104.63035'},{'province': '安徽省', 'city': '合肥市', 'county': '蜀山区', 'latitude': '31.83068', 'longitude': '117.24454'},{'province': '安徽省', 'city': '宣城市', 'county': '郎溪县', 'latitude': '31.0986', 'longitude': '119.15557'},{'province': '青海省', 'city': '青海省', 'county': '茫崖行委', 'latitude': '38.26492', 'longitude': '90.84804'},{'province': '浙江省', 'city': '金华市', 'county': '婺城区', 'latitude': '29.12417', 'longitude': '119.62489'},{'province': '云南省', 'city': '楚雄彝族自治州', 'county': '元谋县', 'latitude': '25.71779', 'longitude': '101.86133'},{'province': '辽宁省', 'city': '抚顺市', 'county': '抚顺县', 'latitude': '41.8825', 'longitude': '123.90639'},{'province': '陝西省', 'city': '商洛市', 'county': '洛南县', 'latitude': '34.16194', 'longitude': '110.2275'},{'province': '福建省', 'city': '三明市', 'county': '三元区', 'latitude': '26.23333', 'longitude': '117.595'},{'province': '河南省', 'city': '河南省', 'county': '杞县', 'latitude': '34.51722', 'longitude': '114.75861'},{'province': '新疆维吾尔自治区', 'city': '克拉玛依市', 'county': '乌尔禾区', 'latitude': '45.97692', 'longitude': '85.57663'},{'province': '湖北省', 'city': '武汉市', 'county': '青山区', 'latitude': '30.68568', 'longitude': '114.42707'},{'province': '安徽省', 'city': '淮南市', 'county': '八公山区', 'latitude': '32.63292', 'longitude': '116.84003'},{'province': '江苏省', 'city': '淮安市', 'county': '淮阴区', 'latitude': '33.63505', 'longitude': '119.00543'},{'province': '江西省', 'city': '抚州市', 'county': '南城县', 'latitude': '27.5099', 'longitude': '116.69598'},{'province': '广东省', 'city': '湛江市', 'county': '麻章区', 'latitude': '21.275', 'longitude': '110.39167'},{'province': '广西壮族自治区', 'city': '崇左市', 'county': '天等县', 'latitude': '23.08333', 'longitude': '107.06667'},{'province': '湖北省', 'city': '襄樊市', 'county': '南漳县', 'latitude': '31.63811', 'longitude': '111.79091'},{'province': '陝西省', 'city': '汉中市', 'county': '汉台区', 'latitude': '33.05944', 'longitude': '107.02694'},{'province': '湖南省', 'city': '邵阳市', 'county': '新宁县', 'latitude': '26.55968', 'longitude': '110.92806'},{'province': '山东省', 'city': '淄博市', 'county': '周村区', 'latitude': '36.76972', 'longitude': '117.90111'},{'province': '山东省', 'city': '青岛市', 'county': '市北区', 'latitude': '36.08992', 'longitude': '120.36931'},{'province': '四川省', 'city': '成都市', 'county': '锦江区', 'latitude': '30.65835', 'longitude': '104.07997'},{'province': '河南省', 'city': '许昌市', 'county': '许昌县', 'latitude': '34.06378', 'longitude': '113.85948'},{'province': '河北省', 'city': '廊坊市', 'county': '安次区', 'latitude': '39.51167', 'longitude': '116.66667'},{'province': '新疆维吾尔自治区', 'city': '和田地区', 'county': '策勒县', 'latitude': '37.03333', 'longitude': '80.88333'},{'province': '广西壮族自治区', 'city': '贵港市', 'county': '贵港市', 'latitude': '23.1', 'longitude': '109.6'},{'province': '福建省', 'city': '宁德市', 'county': '蕉城区', 'latitude': '26.77258', 'longitude': '119.45231'},{'province': '辽宁省', 'city': '朝阳市', 'county': '龙城区', 'latitude': '41.65333', 'longitude': '120.43444'},{'province': '重庆市', 'city': '重庆市', 'county': '大足县', 'latitude': '29.65693', 'longitude': '105.73551'},{'province': '广西壮族自治区', 'city': '百色市', 'county': '田阳县', 'latitude': '23.75', 'longitude': '106.9'},{'province': '浙江省', 'city': '台州市', 'county': '临海市', 'latitude': '28.85459', 'longitude': '121.20713'},{'province': '山东省', 'city': '烟台市', 'county': '莱山区', 'latitude': '37.45836', 'longitude': '121.42186'},{'province': '内蒙古自治区', 'city': '呼伦贝尔市', 'county': '牙克石市', 'latitude': '49.32123', 'longitude': '121.27807'},{'province': '湖南省', 'city': '怀化市', 'county': '鹤城区', 'latitude': '27.55844', 'longitude': '109.96334'},{'province': '贵州省', 'city': '贵阳市', 'county': '南明区', 'latitude': '26.53656', 'longitude': '106.72996'},{'province': '湖南省', 'city': '永州市', 'county': '宁远县', 'latitude': '25.67056', 'longitude': '111.98972'},{'province': '江西省', 'city': '赣州市', 'county': '龙南县', 'latitude': '24.77835', 'longitude': '114.66503'},{'province': '四川省', 'city': '雅安市', 'county': '石棉县', 'latitude': '29.21714', 'longitude': '102.31927'},{'province': '甘肃省', 'city': '定西市', 'county': '临洮县', 'latitude': '35.52163', 'longitude': '103.99071'},{'province': '江苏省', 'city': '盐城市', 'county': '东台市', 'latitude': '32.8214', 'longitude': '120.57069'},{'province': '江苏省', 'city': '宿迁市', 'county': '泗阳县', 'latitude': '33.7858', 'longitude': '118.66258'},{'province': '浙江省', 'city': '金华市', 'county': '永康市', 'latitude': '28.93754', 'longitude': '120.0979'},{'province': '广东省', 'city': '广州市', 'county': '天河区', 'latitude': '23.12', 'longitude': '113.39083'},{'province': '云南省', 'city': '丽江市', 'county': '华坪县', 'latitude': '26.65936', 'longitude': '101.27893'},{'province': '海南省', 'city': '海南省', 'county': '保亭黎族苗族自治县', 'latitude': '18.59444', 'longitude': '109.64833'},{'province': '广西壮族自治区', 'city': '柳州市', 'county': '柳城县', 'latitude': '24.65', 'longitude': '109.23333'},{'province': '江西省', 'city': '鹰潭市', 'county': '余江县', 'latitude': '28.27589', 'longitude': '116.90164'},{'province': '贵州省', 'city': '黔南布依族苗族自治州', 'county': '罗甸县', 'latitude': '25.48333', 'longitude': '106.65'},{'province': '安徽省', 'city': '淮南市', 'county': '田家庵区', 'latitude': '32.6555', 'longitude': '117.04188'},{'province': '黑龙江省', 'city': '佳木斯市', 'county': '同江市', 'latitude': '47.8586', 'longitude': '133.05733'},{'province': '四川省', 'city': '甘孜藏族自治州', 'county': '理塘县', 'latitude': '30.09806', 'longitude': '100.09996'},{'province': '贵州省', 'city': '黔东南苗族侗族自治州', 'county': '台江县', 'latitude': '26.60951', 'longitude': '108.31815'},{'province': '吉林省', 'city': '延边朝鲜族自治州', 'county': '敦化市', 'latitude': '43.35', 'longitude': '128.21667'},{'province': '广西壮族自治区', 'city': '贵港市', 'county': '覃塘区', 'latitude': '23.13405', 'longitude': '109.4478'},{'province': '重庆市', 'city': '重庆市', 'county': '永川市', 'latitude': '29.29285', 'longitude': '105.87008'},{'province': '陝西省', 'city': '榆林市', 'county': '子洲县', 'latitude': '37.57889', 'longitude': '109.8175'},{'province': '广西壮族自治区', 'city': '玉林市', 'county': '容县', 'latitude': '22.86667', 'longitude': '110.55'},{'province': '安徽省', 'city': '池州市', 'county': '青阳县', 'latitude': '30.59944', 'longitude': '117.90197'},{'province': '江西省', 'city': '吉安市', 'county': '峡江县', 'latitude': '27.61138', 'longitude': '115.19122'},{'province': '河南省', 'city': '商丘市', 'county': '宁陵县', 'latitude': '34.4467', 'longitude': '115.29886'},{'province': '天津市', 'city': '天津市', 'county': '东丽区', 'latitude': '39.13333', 'longitude': '117.41999'},{'province': '辽宁省', 'city': '本溪市', 'county': '溪湖区', 'latitude': '41.31278', 'longitude': '123.76778'},{'province': '云南省', 'city': '临沧市', 'county': '耿马傣族佤族自治县', 'latitude': '23.64119', 'longitude': '99.48361'},{'province': '江西省', 'city': '赣州市', 'county': '赣县', 'latitude': '25.84092', 'longitude': '115.09025'},{'province': '新疆维吾尔自治区', 'city': '塔城地区', 'county': '裕民县', 'latitude': '45.98333', 'longitude': '82.46667'},{'province': '湖南省', 'city': '湘西土家族苗族自治州', 'county': '花垣县', 'latitude': '28.43118', 'longitude': '109.42372'},{'province': '山西省', 'city': '山西省', 'county': '吉县', 'latitude': '36.15875', 'longitude': '110.69301'},{'province': '青海省', 'city': '海南藏族自治州', 'county': '贵德县', 'latitude': '35.98861', 'longitude': '101.47139'},{'province': '四川省', 'city': '宜宾市', 'county': '柏溪镇', 'latitude': '28.70791', 'longitude': '104.50132'},{'province': '陝西省', 'city': '榆林市', 'county': '佳县', 'latitude': '38.0775', 'longitude': '110.27417'},{'province': '云南省', 'city': '普洱市', 'county': '江城哈尼族彝族自治县', 'latitude': '22.61957', 'longitude': '101.77819'},{'province': '山西省', 'city': '吕梁市', 'county': '兴县', 'latitude': '38.37576', 'longitude': '111.07268'},{'province': '四川省', 'city': '宜宾市', 'county': '筠连县', 'latitude': '28.03037', 'longitude': '104.53727'},{'province': '广东省', 'city': '梅州市', 'county': '兴宁市', 'latitude': '24.26197', 'longitude': '115.73904'},{'province': '广西壮族自治区', 'city': '防城港市', 'county': '东兴市', 'latitude': '21.61846', 'longitude': '108.04843'},{'province': '江西省', 'city': '景德镇市', 'county': '乐平市', 'latitude': '28.9756', 'longitude': '117.25841'},{'province': '北京市', 'city': '北京市', 'county': '延庆县', 'latitude': '40.54044', 'longitude': '116.15867'},{'province': '江西省', 'city': '抚州市', 'county': '黎川县', 'latitude': '27.26012', 'longitude': '116.95826'},{'province': '青海省', 'city': '果洛藏族自治州', 'county': '甘德县', 'latitude': '33.98792', 'longitude': '100.1878'},{'province': '江苏省', 'city': '扬州市', 'county': '广陵区', 'latitude': '32.39253', 'longitude': '119.43455'},{'province': '贵州省', 'city': '六盘水市', 'county': '六枝特区', 'latitude': '26.30625', 'longitude': '105.32351'},{'province': '河南省', 'city': '郑州市', 'county': '荥阳市', 'latitude': '34.8085', 'longitude': '113.34126'},{'province': '贵州省', 'city': '黔西南布依族苗族自治州', 'county': '兴仁县', 'latitude': '25.50503', 'longitude': '105.19988'},{'province': '四川省', 'city': '雅安市', 'county': '荥经县', 'latitude': '29.74133', 'longitude': '102.70553'},{'province': '新疆维吾尔自治区', 'city': '克拉玛依市', 'county': '白碱滩区', 'latitude': '45.63421', 'longitude': '85.26077'},{'province': '江西省', 'city': '新余市', 'county': '渝水区', 'latitude': '27.83333', 'longitude': '115'},{'province': '浙江省', 'city': '温州市', 'county': '瓯海区', 'latitude': '27.99184', 'longitude': '120.57139'},{'province': '上海市', 'city': '上海市', 'county': '虹口区', 'latitude': '31.25', 'longitude': '121.48333'},{'province': '山东省', 'city': '滨州市', 'county': '阳信县', 'latitude': '37.67262', 'longitude': '117.60944'},{'province': '广西壮族自治区', 'city': '百色市', 'county': '德保县', 'latitude': '23.33333', 'longitude': '106.61667'},{'province': '上海市', 'city': '上海市', 'county': '普陀区', 'latitude': '31.25539', 'longitude': '121.39326'},{'province': '湖南省', 'city': '永州市', 'county': '零陵区', 'latitude': '26.21667', 'longitude': '111.61667'},{'province': '河北省', 'city': '张家口市', 'county': '尚义县', 'latitude': '41.12914', 'longitude': '114.16105'},{'province': '河北省', 'city': '唐山市', 'county': '乐亭县', 'latitude': '39.34686', 'longitude': '118.93255'},{'province': '广东省', 'city': '广州市', 'county': '黄埔区', 'latitude': '23.10694', 'longitude': '113.42528'},{'province': '重庆市', 'city': '重庆市', 'county': '长寿区', 'latitude': '29.95692', 'longitude': '107.13537'},{'province': '湖南省', 'city': '永州市', 'county': '冷水滩区', 'latitude': '26.45', 'longitude': '111.58333'},{'province': '河北省', 'city': '秦皇岛市', 'county': '海港区', 'latitude': '39.92519', 'longitude': '119.56872'},{'province': '吉林省', 'city': '通化市', 'county': '柳河县', 'latitude': '42.18778', 'longitude': '125.89556'},{'province': '湖北省', 'city': '宜昌市', 'county': '兴山县', 'latitude': '31.30835', 'longitude': '110.80395'},{'province': '云南省', 'city': '玉溪市', 'county': '通海县', 'latitude': '24.09354', 'longitude': '102.68952'},{'province': '江西省', 'city': '九江市', 'county': '浔阳区', 'latitude': '29.73561', 'longitude': '116.00425'},{'province': '云南省', 'city': '大理白族自治州', 'county': '南涧彝族自治县', 'latitude': '24.89589', 'longitude': '100.47285'},{'province': '四川省', 'city': '遂宁市', 'county': '船山区', 'latitude': '30.50391', 'longitude': '105.55295'},{'province': '广西壮族自治区', 'city': '广西壮族自治区', 'county': '隆林各族自治县', 'latitude': '24.71667', 'longitude': '105.43333'},{'province': '河南省', 'city': '开封市', 'county': '金明区', 'latitude': '34.82095', 'longitude': '114.31367'},{'province': '江西省', 'city': '上饶市', 'county': '婺源县', 'latitude': '29.32338', 'longitude': '117.75427'},{'province': '青海省', 'city': '西宁市', 'county': '平安县', 'latitude': '36.39998', 'longitude': '101.9975'},{'province': '山西省', 'city': '运城市', 'county': '永济市', 'latitude': '34.89893', 'longitude': '110.47634'},{'province': '浙江省', 'city': '嘉兴市', 'county': '嘉善县', 'latitude': '30.85', 'longitude': '120.9'},{'province': '甘肃省', 'city': '兰州市', 'county': '西固区', 'latitude': '36.1403', 'longitude': '103.55675'},{'province': '内蒙古自治区', 'city': '内蒙古自治区', 'county': '莫力达瓦达斡尔族自治旗', 'latitude': '48.73228', 'longitude': '124.39088'},{'province': '湖南省', 'city': '怀化市', 'county': '溆浦县', 'latitude': '27.79052', 'longitude': '110.63221'},{'province': '云南省', 'city': '楚雄彝族自治州', 'county': '武定县', 'latitude': '25.67986', 'longitude': '102.17361'},{'province': '内蒙古自治区', 'city': '赤峰市', 'county': '巴林右旗', 'latitude': '43.55045', 'longitude': '118.95073'},{'province': '西藏自治区', 'city': '林芝地区', 'county': '米林县', 'latitude': '29.25636', 'longitude': '94.00073'},{'province': '福建省', 'city': '南平市', 'county': '延平区', 'latitude': '26.58839', 'longitude': '118.23'},{'province': '山东省', 'city': '济宁市', 'county': '邹城市', 'latitude': '35.37833', 'longitude': '117.07889'},{'province': '广西壮族自治区', 'city': '河池市', 'county': '南丹县', 'latitude': '24.98333', 'longitude': '107.53333'},{'province': '江西省', 'city': '赣州市', 'county': '兴国县', 'latitude': '26.39539', 'longitude': '115.4352'},{'province': '河南省', 'city': '许昌市', 'county': '魏都区', 'latitude': '34.03966', 'longitude': '113.81397'},{'province': '山东省', 'city': '烟台市', 'county': '福山区', 'latitude': '37.46714', 'longitude': '121.20566'},{'province': '浙江省', 'city': '嘉兴市', 'county': '秀洲区', 'latitude': '30.76664', 'longitude': '120.7022'},{'province': '河北省', 'city': '邢台市', 'county': '巨鹿县', 'latitude': '37.2', 'longitude': '115.02'},{'province': '江西省', 'city': '吉安市', 'county': '吉安县', 'latitude': '27.02656', 'longitude': '114.6366'},{'province': '湖南省', 'city': '长沙市', 'county': '浏阳市', 'latitude': '28.2363', 'longitude': '113.69841'},{'province': '广东省', 'city': '惠州市', 'county': '龙门县', 'latitude': '23.64886', 'longitude': '114.10614'},{'province': '江西省', 'city': '吉安市', 'county': '吉水县', 'latitude': '27.2468', 'longitude': '115.16689'},{'province': '山东省', 'city': '莱芜市', 'county': '钢城区', 'latitude': '36.05806', 'longitude': '117.7575'},{'province': '山西省', 'city': '山西省', 'county': '蒲县', 'latitude': '36.41862', 'longitude': '111.16843'},{'province': '广东省', 'city': '珠海市', 'county': '金湾区', 'latitude': '22.06722', 'longitude': '113.34417'},{'province': '广东省', 'city': '汕头市', 'county': '金平区', 'latitude': '23.36558', 'longitude': '116.69761'},{'province': '吉林省', 'city': '白山市', 'county': '临江市', 'latitude': '41.84711', 'longitude': '126.93006'},{'province': '江苏省', 'city': '常州市', 'county': '新北区', 'latitude': '31.89084', 'longitude': '119.96826'},{'province': '山东省', 'city': '烟台市', 'county': '栖霞市', 'latitude': '37.30725', 'longitude': '120.89097'},{'province': '河北省', 'city': '石家庄市', 'county': '平山县', 'latitude': '38.25', 'longitude': '114.186'},{'province': '云南省', 'city': '昆明市', 'county': '嵩明县', 'latitude': '25.32931', 'longitude': '102.94794'},{'province': '山东省', 'city': '聊城市', 'county': '冠县', 'latitude': '36.56139', 'longitude': '115.51778'},{'province': '湖南省', 'city': '株洲 市', 'county': '荷塘区', 'latitude': '27.85507', 'longitude': '113.18053'},{'province': '辽宁省', 'city': '鞍山市', 'county': '岫岩满族自治县', 'latitude': '40.29', 'longitude': '123.27'},{'province': '贵州省', 'city': '铜仁地区', 'county': '思南县', 'latitude': '27.8937', 'longitude': '108.10428'},{'province': '河南省', 'city': '濮阳市', 'county': '华龙区', 'latitude': '35.78245', 'longitude': '115.0338'},{'province': '江苏省', 'city': '徐州市', 'county': '鼓楼区', 'latitude': '34.28468', 'longitude': '117.17633'},{'province': '内蒙古自治区', 'city': '呼和浩特市', 'county': '赛罕区', 'latitude': '40.79442', 'longitude': '111.6988'},{'province': '西藏自治区', 'city': '山南地区', 'county': '浪卡子县', 'latitude': '28.72736', 'longitude': '90.74908'},{'province': '甘肃省', 'city': '陇南市', 'county': '康县', 'latitude': '33.24408', 'longitude': '105.63074'},{'province': '吉林省', 'city': '白山市', 'county': '抚松县', 'latitude': '42.26483', 'longitude': '127.57128'},{'province': '云南省', 'city': '玉溪市', 'county': '江川县', 'latitude': '24.31791', 'longitude': '102.75306'},{'province': '四川省', 'city': '内江市', 'county': '资中县', 'latitude': '29.78039', 'longitude': '104.81404'},{'province': '河北省', 'city': '衡水市', 'county': '深州市', 'latitude': '38.01667', 'longitude': '115.55'},{'province': '福建省', 'city': '鲤城', 'county': '晋江市', 'latitude': '24.72585', 'longitude': '118.54472'},{'province': '福建省', 'city': '漳州市', 'county': '龙文区', 'latitude': '24.48009', 'longitude': '117.71091'},{'province': '湖北省', 'city': '十堰市', 'county': '张湾区', 'latitude': '32.63925', 'longitude': '110.75118'},{'province': '湖南省', 'city': '邵阳市', 'county': '隆回县', 'latitude': '27.30826', 'longitude': '110.94926'},{'province': '上海市', 'city': '上海市', 'county': '静安区', 'latitude': '31.23333', 'longitude': '121.41667'},{'province': '河北省', 'city': '张家口市', 'county': '涿鹿县', 'latitude': '40.09095', 'longitude': '115.23987'},{'province': '贵州省', 'city': '安顺市', 'county': '关岭布依族苗族自治县', 'latitude': '25.95', 'longitude': '105.63333'},{'province': '河北省', 'city': '衡水市', 'county': '阜城县', 'latitude': '37.9098', 'longitude': '116.32473'},{'province': '山东省', 'city': '泰安市', 'county': '泰山区', 'latitude': '36.20472', 'longitude': '117.15944'},{'province': '内蒙古自治区', 'city': '鄂尔多斯市', 'county': '乌审旗', 'latitude': '38.59657', 'longitude': '108.82552'},{'province': '西藏自治区', 'city': '日喀则地区', 'county': '仲巴县', 'latitude': '30.38624', 'longitude': '83.73676'},{'province': '湖北省', 'city': '咸宁市', 'county': '崇阳县', 'latitude': '29.5456', 'longitude': '114.17435'},{'province': '江西省', 'city': '萍乡市', 'county': '安源区', 'latitude': '27.63505', 'longitude': '113.8099'},{'province': '湖北省', 'city': '荆门市', 'county': '东宝区', 'latitude': '31.04864', 'longitude': '112.18239'},{'province': '辽宁省', 'city': '沈阳市', 'county': '康平县', 'latitude': '42.745', 'longitude': '123.36917'},{'province': '四川省', 'city': '阿坝藏族羌族自治州', 'county': '茂县', 'latitude': '31.85668', 'longitude': '103.64464'},{'province': '四川省', 'city': '阿坝藏族羌族自治州', 'county': '理县', 'latitude': '31.58803', 'longitude': '103.02104'},{'province': '辽宁省', 'city': '营口市', 'county': '西市区', 'latitude': '40.65943', 'longitude': '122.18044'},{'province': '黑龙江省', 'city': '大兴安岭地区', 'county': '塔河县', 'latitude': '52.59241', 'longitude': '124.73195'},{'province': '四川省', 'city': '阿坝藏族羌族自治州', 'county': '九寨沟县', 'latitude': '33.34447', 'longitude': '103.99213'},{'province': '辽宁省', 'city': '沈阳市', 'county': '沈河区', 'latitude': '41.85667', 'longitude': '123.45333'},{'province': '河北省', 'city': '衡水市', 'county': '景县', 'latitude': '37.65448', 'longitude': '116.18777'},{'province': '江苏省', 'city': '镇江市', 'county': '京口区', 'latitude': '32.20893', 'longitude': '119.46221'},{'province': '新疆维吾尔自治区', 'city': '乌鲁木齐市', 'county': '天山区', 'latitude': '43.7944', 'longitude': '87.63168'},{'province': '青海省', 'city': '黄南藏族自治州', 'county': '同仁县', 'latitude': '35.41027', 'longitude': '102.08125'},{'province': '安徽省', 'city': '芜湖市', 'county': '镜湖区', 'latitude': '31.32436', 'longitude': '118.38078'},{'province': '湖北省', 'city': '黄冈市', 'county': '红安县', 'latitude': '31.34014', 'longitude': '114.62084'},{'province': '河北省', 'city': '石家庄市', 'county': '赞皇县', 'latitude': '37.65', 'longitude': '114.38'},{'province': '新疆维吾尔自治区', 'city': '昌吉回族自治州', 'county': '吉木萨尔县', 'latitude': '44.2945', 'longitude': '89.02968'},{'province': '四川省', 'city': '资阳市', 'county': '乐至县', 'latitude': '30.30817', 'longitude': '105.02615'},{'province': '江西省', 'city': '抚州市', 'county': '乐安县', 'latitude': '27.38549', 'longitude': '115.83676'},{'province': '四川省', 'city': '乐山市', 'county': '金口河区', 'latitude': '29.31656', 'longitude': '103.04216'},{'province': '湖南省', 'city': '衡阳市', 'county': '祁东县', 'latitude': '26.74283', 'longitude': '112.01286'},{'province': '江苏省', 'city': '宿迁市', 'county': '沭阳县', 'latitude': '34.13538', 'longitude': '118.84634'},{'province': '湖北省', 'city': '荆门市', 'county': '掇刀区', 'latitude': '30.97544', 'longitude': '112.20128'},{'province': '湖南省', 'city': '湘潭市', 'county': '岳塘区', 'latitude': '27.85635', 'longitude': '112.97234'},{'province': '广东省', 'city': '肇庆市', 'county': '怀集县', 'latitude': '23.98378', 'longitude': '112.20134'},{'province': '福建省', 'city': '鲤城', 'county': '惠安县', 'latitude': '24.98068', 'longitude': '118.80178'},{'province': '辽宁省', 'city': '辽阳市', 'county': '灯塔市', 'latitude': '41.42', 'longitude': '123.33'},{'province': '天津市', 'city': '天津市', 'county': '北辰区', 'latitude': '39.26653', 'longitude': '117.1677'},{'province': '贵州省', 'city': '贵阳市', 'county': '开阳县', 'latitude': '27.10371', 'longitude': '107.00756'},{'province': '江苏省', 'city': '宿迁市', 'county': '泗洪县', 'latitude': '33.46021', 'longitude': '118.27661'},{'province': '云南省', 'city': '文山壮族苗族自治州', 'county': '马关县', 'latitude': '22.97996', 'longitude': '104.30216'},{'province': '贵州省', 'city': '黔西南布依族苗族自治州', 'county': '贞丰县', 'latitude': '25.4549', 'longitude': '105.6417'},{'province': '江苏省', 'city': '镇江市', 'county': '句容市', 'latitude': '31.93096', 'longitude': '119.19486'},{'province': '内蒙古自治区', 'city': '通辽市', 'county': '开鲁县', 'latitude': '43.65878', 'longitude': '121.27433'},{'province': '湖北省', 'city': '黄冈市', 'county': '黄州区', 'latitude': '30.53151', 'longitude': '114.91561'},{'province': '西藏自治区', 'city': '日喀则地区', 'county': '白朗县', 'latitude': '28.82763', 'longitude': '89.13413'},{'province': '山东省', 'city': '潍坊市', 'county': '寒亭区', 'latitude': '36.77556', 'longitude': '119.14444'},{'province': '黑龙江省', 'city': '哈尔滨市', 'county': '巴彦县', 'latitude': '46.32894', 'longitude': '127.31587'},{'province': '山东省', 'city': '济南市', 'county': '天桥区', 'latitude': '36.70981', 'longitude': '116.9941'},{'province': '广东省', 'city': '梅州市', 'county': '梅县区', 'latitude': '24.22413', 'longitude': '116.02394'},{'province': '云南省', 'city': '大理白族自治州', 'county': '巍山彝族回族自治县', 'latitude': '25.25421', 'longitude': '100.16677'},{'province': '内蒙古自治区', 'city': '乌兰察布市', 'county': '丰镇市', 'latitude': '40.50737', 'longitude': '113.19126'},{'province': '陝西省', 'city': '安康市', 'county': '紫阳县', 'latitude': '32.44794', 'longitude': '108.43562'},{'province': '新疆维吾尔自治区', 'city': '昌吉回族自治州', 'county': '昌吉市', 'latitude': '44.05048', 'longitude': '87.20885'},{'province': '贵州省', 'city': '贵阳市', 'county': '息烽县', 'latitude': '27.14907', 'longitude': '106.66349'},{'province': '江西省', 'city': '九江市', 'county': '修水县', 'latitude': '29.00208', 'longitude': '114.39479'},{'province': '广西壮族自治区', 'city': '梧州市', 'county': '蒙山县', 'latitude': '24.2', 'longitude': '110.51667'},{'province': '西藏自治区', 'city': '昌都市', 'county': '类乌齐县', 'latitude': '31.44294', 'longitude': '96.42606'},{'province': '广东省', 'city': '深圳市', 'county': '南山区', 'latitude': '22.53806', 'longitude': '113.91472'},{'province': '广东省', 'city': '广州市', 'county': '白云区', 'latitude': '23.14222', 'longitude': '113.26056'},{'province': '山东省', 'city': '枣庄市', 'county': '滕州市', 'latitude': '35.1', 'longitude': '117.15'},{'province': '西藏自治区', 'city': '日喀则地区', 'county': '拉孜县', 'latitude': '29.18408', 'longitude': '87.92447'},{'province': '黑龙江省', 'city': '绥化市', 'county': '绥棱县', 'latitude': '47.57013', 'longitude': '127.68525'},{'province': '甘肃省', 'city': '甘肃省', 'county': '合作市', 'latitude': '34.9703', 'longitude': '103.00809'},{'province': '河南省', 'city': '南阳市', 'county': '宛城区', 'latitude': '33.00681', 'longitude': '112.53702'},{'province': '辽宁省', 'city': '锦州市', 'county': '北镇市', 'latitude': '41.59611', 'longitude': '121.79278'},{'province': '黑龙江省', 'city': '双鸭山市', 'county': '集贤县', 'latitude': '46.79831', 'longitude': '131.17937'},{'province': '新疆维吾尔自治区', 'city': '喀什地区', 'county': '伽师县', 'latitude': '39.60352', 'longitude': '77.25986'},{'province': '黑龙江省', 'city': '佳木斯市', 'county': '富锦市', 'latitude': '47.17439', 'longitude': '132.51679'},{'province': '贵州省', 'city': '黔东南苗族侗族自治州', 'county': '黄平县', 'latitude': '26.95358', 'longitude': '107.84583'},{'province': '内蒙古自治区', 'city': '呼伦贝尔市', 'county': '扎兰屯市', 'latitude': '47.93908', 'longitude': '122.54201'},{'province': '广东省', 'city': '云浮市', 'county': '罗定市', 'latitude': '22.68054', 'longitude': '111.46488'},{'province': '云南省', 'city': '普洱市', 'county': '景东彝族自治县', 'latitude': '24.44176', 'longitude': '100.84485'},{'province': '四川省', 'city': '眉山市', 'county': '丹棱县', 'latitude': '30.03497', 'longitude': '103.40781'},{'province': '福建省', 'city': '三明市', 'county': '梅列区', 'latitude': '26.28333', 'longitude': '117.645'},{'province': '山东省', 'city': '济南市', 'county': '章丘市', 'latitude': '36.75833', 'longitude': '117.49139'},{'province': '内蒙古自治区', 'city': '巴彦淖尔市', 'county': '磴口县', 'latitude': '40.45188', 'longitude': '106.73878'},{'province': '甘肃省', 'city': '平凉市', 'county': '崇信县', 'latitude': '35.24792', 'longitude': '106.99208'},{'province': '黑龙江省', 'city': '鸡西市', 'county': '恒山区', 'latitude': '45.16601', 'longitude': '130.9288'},{'province': '云南省', 'city': '昭通市', 'county': '威信县', 'latitude': '27.89784', 'longitude': '104.94992'},{'province': '黑龙江省', 'city': '伊春市', 'county': '金山屯区', 'latitude': '47.45807', 'longitude': '129.50143'},{'province': '新疆维吾尔自治区', 'city': '新疆维吾尔自治区', 'county': '新源县', 'latitude': '43.37114', 'longitude': '83.51053'},{'province': '福建省', 'city': '鲤城', 'county': '南安市', 'latitude': '24.99583', 'longitude': '118.40749'},{'province': '陝西省', 'city': '渭南市', 'county': '澄城县', 'latitude': '35.275', 'longitude': '109.81444'},{'province': '河南省', 'city': '南阳市', 'county': '西峡县', 'latitude': '33.47954', 'longitude': '111.43098'},{'province': '辽宁省', 'city': '铁岭市', 'county': '西丰县', 'latitude': '42.73333', 'longitude': '124.7'},{'province': '湖南省', 'city': '永州市', 'county': '东安县', 'latitude': '26.47429', 'longitude': '111.33025'},{'province': '河北省', 'city': '沧州市', 'county': '泊头市', 'latitude': '38.06', 'longitude': '116.56'},{'province': '河北省', 'city': '保定市', 'county': '新市区', 'latitude': '38.85', 'longitude': '115.44'},{'province': '吉林省', 'city': '吉林市', 'county': '舒兰市', 'latitude': '44.29944', 'longitude': '127.17194'},{'province': '广西壮族自治区', 'city': '南宁市', 'county': '邕宁县', 'latitude': '22.65513', 'longitude': '108.49389'},{'province': '黑龙江省', 'city': '哈尔滨市', 'county': '木兰县', 'latitude': '46.25763', 'longitude': '127.95504'},{'province': '甘肃省', 'city': '甘南藏族自治州', 'county': '碌曲县', 'latitude': '34.32786', 'longitude': '102.34672'},{'province': '宁夏回族自治区', 'city': '中卫市', 'county': '中宁县', 'latitude': '37.49588', 'longitude': '105.77593'},{'province': '四川省', 'city': '成都市', 'county': '崇州市', 'latitude': '30.73303', 'longitude': '103.5637'},{'province': '广东省', 'city': '潮州市', 'county': '湘桥区', 'latitude': '23.67601', 'longitude': '116.62032'},{'province': '广东省', 'city': '揭阳市', 'county': '揭西县', 'latitude': '23.49038', 'longitude': '115.95392'},{'province': '广西壮族自治区', 'city': '河池市', 'county': '宜州市', 'latitude': '24.5', 'longitude': '108.66667'},{'province': '湖南省', 'city': '常德市', 'county': '临澧县', 'latitude': '29.52332', 'longitude': '111.59428'},{'province': '四川省', 'city': '资阳市', 'county': '雁江区', 'latitude': '30.10523', 'longitude': '104.73662'},{'province': '山西省', 'city': '长治市', 'county': '沁源县', 'latitude': '36.70724', 'longitude': '112.25806'},{'province': '湖北省', 'city': '孝感市', 'county': '云梦县', 'latitude': '31.03687', 'longitude': '113.78959'},{'province': '湖南省', 'city': '长沙市', 'county': '岳麓区', 'latitude': '28.19628', 'longitude': '112.93703'},{'province': '湖北省', 'city': '恩施土家族苗族自治州', 'county': '鹤峰县', 'latitude': '29.9307', 'longitude': '110.20807'},{'province': '湖南省', 'city': '永州市', 'county': '道县', 'latitude': '25.47124', 'longitude': '111.61186'},{'province': '山东省', 'city': '东营市', 'county': '广饶县', 'latitude': '37.06667', 'longitude': '118.36667'},{'province': '西藏自治区', 'city': '西藏自治区', 'county': '妥坝县', 'latitude': '31.31667', 'longitude': '97.7'},{'province': '贵州省', 'city': '铜仁地区', 'county': '松桃苗族自治县', 'latitude': '28.06532', 'longitude': '109.07783'},{'province': '河南省', 'city': '驻马店市', 'county': '汝南县', 'latitude': '32.92658', 'longitude': '114.30059'},{'province': '广西壮族自治区', 'city': '贺州市', 'county': '贺州市', 'latitude': '24.4', 'longitude': '111.5'},