{'province': '台灣', 'city': '彰化縣', 'county': '田中鎮', 'latitude': '23.85', 'longitude': '120.58333'},{'province': '台灣', 'city': '苗栗縣', 'county': '銅鑼鄕', 'latitude': '24.46667', 'longitude': '120.8'},{'province': '台灣', 'city': '屏東縣', 'county': '牡丹鄉', 'latitude': '22.15', 'longitude': '120.8'},{'province': '台灣', 'city': '臺中市', 'county': '大安區', 'latitude': '24.36667', 'longitude': '120.58333'},{'province': '台灣', 'city': '高雄市', 'county': '桃源區', 'latitude': '23.2', 'longitude': '120.83333'},{'province': '台灣', 'city': '臺中市', 'county': '霧峰區', 'latitude': '24.05', 'longitude': '120.71667'},{'province': '福建省', 'city': '金門縣', 'county': '烈嶼鄉', 'latitude': '24.42982', 'longitude': '118.23714'},{'province': '台灣', 'city': '台南市', 'county': '學甲區', 'latitude': '23.25', 'longitude': '120.18333'},{'province': '台灣', 'city': '新北市', 'county': '樹林區', 'latitude': '24.98333', 'longitude': '121.4'},{'province': '台灣', 'city': '彰化縣', 'county': '二水鄉', 'latitude': '23.81667', 'longitude': '120.61667'},{'province': '台灣', 'city': '台東縣', 'county': '卑南鄉', 'latitude': '22.76667', 'longitude': '121'},{'province': '台灣', 'city': '台東縣', 'county': '關山鎮', 'latitude': '23.03778', 'longitude': '121.17653'},{'province': '台灣', 'city': '台南市', 'county': '玉井區', 'latitude': '23.11667', 'longitude': '120.46667'},{'province': '台灣', 'city': '屏東縣', 'county': '萬巒鄉', 'latitude': '22.58333', 'longitude': '120.58333'},{'province': '台灣', 'city': '苗栗縣', 'county': '西湖鄉', 'latitude': '24.55', 'longitude': '120.76667'},{'province': '台灣', 'city': '花蓮縣', 'county': '豐濱鄉', 'latitude': '23.58333', 'longitude': '121.48333'},{'province': '台灣', 'city': '苗栗縣', 'county': '大湖鄕', 'latitude': '24.4', 'longitude': '120.85'},{'province': '台灣', 'city': '高雄市', 'county': '茄萣區', 'latitude': '22.88535', 'longitude': '120.19524'},{'province': '台灣', 'city': '雲林縣', 'county': '土庫鎮', 'latitude': '23.7', 'longitude': '120.35'},{'province': '台灣', 'city': '高雄市', 'county': '旗山區', 'latitude': '22.86667', 'longitude': '120.46667'},{'province': '台灣', 'city': '臺中市', 'county': '東區', 'latitude': '24.13743', 'longitude': '120.69703'},{'province': '台灣', 'city': '新竹縣', 'county': '北埔鄉', 'latitude': '24.68333', 'longitude': '121.06667'},{'province': '台灣', 'city': '苗栗縣', 'county': '後龍鎮', 'latitude': '24.61667', 'longitude': '120.76667'},{'province': '台灣', 'city': '南投縣', 'county': '集集鎮', 'latitude': '23.83333', 'longitude': '120.78333'},{'province': '福建省', 'city': '金門縣', 'county': '金城鎮', 'latitude': '24.4129', 'longitude': '118.3134'},{'province': '福建省', 'city': '連江縣', 'county': '東引鄉', 'latitude': '26.36665', 'longitude': '120.48912'},{'province': '台灣', 'city': '澎湖縣', 'county': '湖西鄉', 'latitude': '23.58333', 'longitude': '119.63333'},{'province': '台灣', 'city': '台東縣', 'county': '臺東市', 'latitude': '22.75', 'longitude': '121.11667'},{'province': '台灣', 'city': '台南市', 'county': '白河區', 'latitude': '23.36667', 'longitude': '120.45'},{'province': '台灣', 'city': '台南市', 'county': '仁德區', 'latitude': '22.95', 'longitude': '120.23333'},{'province': '台灣', 'city': '嘉義縣', 'county': '民雄鄉', 'latitude': '23.55', 'longitude': '120.45'},{'province': '台灣', 'city': '彰化縣', 'county': '埔心鄉', 'latitude': '23.96667', 'longitude': '120.53333'},{'province': '台灣', 'city': '新竹縣', 'county': '湖口鄉', 'latitude': '24.88333', 'longitude': '121.05'},{'province': '台灣', 'city': '花蓮縣', 'county': '花蓮市', 'latitude': '24', 'longitude': '121.6'},{'province': '台灣', 'city': '屏東縣', 'county': '佳冬鄉', 'latitude': '22.43333', 'longitude': '120.53333'},{'province': '台灣', 'city': '高雄市', 'county': '六龜區', 'latitude': '23.01667', 'longitude': '120.65'},{'province': '台灣', 'city': '澎湖縣', 'county': '西嶼鄉', 'latitude': '23.60867', 'longitude': '119.51134'},{'province': '台灣', 'city': '嘉義縣', 'county': '太保市', 'latitude': '23.48333', 'longitude': '120.33333'},{'province': '台灣', 'city': '屏東縣', 'county': '鹽埔鄉', 'latitude': '22.73333', 'longitude': '120.56667'},{'province': '台灣', 'city': '高雄市', 'county': '新興區', 'latitude': '22.62997', 'longitude': '120.30672'},{'province': '台灣', 'city': '雲林縣', 'county': '四湖鄉', 'latitude': '23.65', 'longitude': '120.2'},{'province': '台灣', 'city': '高雄市', 'county': '美濃區', 'latitude': '22.9', 'longitude': '120.55'},{'province': '台灣', 'city': '台南市', 'county': '下營區', 'latitude': '23.23333', 'longitude': '120.26667'},{'province': '台灣', 'city': '苗栗縣', 'county': '通霄鎮', 'latitude': '24.48333', 'longitude': '120.7'},{'province': '台灣', 'city': '南投縣', 'county': '草屯镇', 'latitude': '23.98333', 'longitude': '120.73333'},{'province': '台灣', 'city': '嘉義縣', 'county': '竹崎鄉', 'latitude': '23.51667', 'longitude': '120.58333'},{'province': '台灣', 'city': '屏東縣', 'county': '南州鄉', 'latitude': '22.48333', 'longitude': '120.51667'},{'province': '台灣', 'city': '南投縣', 'county': '鹿谷鄉', 'latitude': '23.73333', 'longitude': '120.76667'},{'province': '台灣', 'city': '彰化縣', 'county': '員林鎮', 'latitude': '23.95', 'longitude': '120.58333'},{'province': '台灣', 'city': '高雄市', 'county': '梓官區', 'latitude': '22.75', 'longitude': '120.25'},{'province': '台灣', 'city': '高雄市', 'county': '彌陀區', 'latitude': '22.78333', 'longitude': '120.23333'},{'province': '台灣', 'city': '屏東縣', 'county': '九如鄉', 'latitude': '22.73333', 'longitude': '120.48333'},{'province': '台灣', 'city': '台南市', 'county': '永康區', 'latitude': '23.03333', 'longitude': '120.25'},{'province': '台灣', 'city': '台南市', 'county': '官田區', 'latitude': '23.2', 'longitude': '120.33333'},{'province': '台灣', 'city': '新北市', 'county': '五股區', 'latitude': '25.1', 'longitude': '121.43333'},{'province': '台灣', 'city': '彰化縣', 'county': '溪湖鎮', 'latitude': '23.95', 'longitude': '120.48333'},{'province': '台灣', 'city': '臺中市', 'county': '烏日區', 'latitude': '24.08333', 'longitude': '120.61667'},{'province': '台灣', 'city': '台南市', 'county': '楠西區', 'latitude': '23.18333', 'longitude': '120.51667'},{'province': '台灣', 'city': '高雄市', 'county': '鼓山區', 'latitude': '22.64813', 'longitude': '120.27408'},{'province': '台灣', 'city': '苗栗縣', 'county': '卓蘭鎮', 'latitude': '24.33333', 'longitude': '120.85'},{'province': '台灣', 'city': '嘉義縣', 'county': '水上鄉', 'latitude': '23.43333', 'longitude': '120.41667'},{'province': '台灣', 'city': '嘉義縣', 'county': '朴子市', 'latitude': '23.45', 'longitude': '120.25'},{'province': '台灣', 'city': '基隆市', 'county': '安樂區', 'latitude': '25.14847', 'longitude': '121.69998'},{'province': '台灣', 'city': '彰化縣', 'county': '芬園鄉', 'latitude': '24.01667', 'longitude': '120.61667'},{'province': '台灣', 'city': '南投縣', 'county': '信義鄉', 'latitude': '23.66667', 'longitude': '121.01667'},{'province': '台灣', 'city': '臺中市', 'county': '神岡區', 'latitude': '24.26667', 'longitude': '120.66667'},{'province': '台灣', 'city': '高雄市', 'county': '旗津區', 'latitude': '22.58292', 'longitude': '120.28908'},{'province': '台灣', 'city': '花蓮縣', 'county': '鳳林鎮', 'latitude': '23.73333', 'longitude': '121.45'},{'province': '台灣', 'city': '屏東縣', 'county': '滿州鄉', 'latitude': '22.05', 'longitude': '120.83333'},{'province': '台灣', 'city': '台東縣', 'county': '金峰鄉', 'latitude': '22.56667', 'longitude': '120.85'},{'province': '台灣', 'city': '花蓮縣', 'county': '光復鄉', 'latitude': '23.65', 'longitude': '121.43333'},{'province': '台灣', 'city': '桃園市', 'county': '八德區', 'latitude': '24.95', 'longitude': '121.28333'},{'province': '台灣', 'city': '高雄市', 'county': '燕巢區', 'latitude': '22.8', 'longitude': '120.36667'},{'province': '台灣', 'city': '嘉義縣', 'county': '義竹鄉', 'latitude': '23.36667', 'longitude': '120.21667'},{'province': '台灣', 'city': '雲林縣', 'county': '崙背鄉', 'latitude': '23.78333', 'longitude': '120.33333'},{'province': '台灣', 'city': '雲林縣', 'county': '大埤鄉', 'latitude': '23.65', 'longitude': '120.41667'},{'province': '台灣', 'city': '彰化縣', 'county': '花壇鄉', 'latitude': '24.03333', 'longitude': '120.55'},{'province': '台灣', 'city': '新北市', 'county': '三重區', 'latitude': '25.06667', 'longitude': '121.48333'},{'province': '福建省', 'city': '金門縣', 'county': '金沙鎮', 'latitude': '24.48812', 'longitude': '118.42041'},{'province': '台灣', 'city': '台南市', 'county': '新市區', 'latitude': '23.08333', 'longitude': '120.26667'},{'province': '台灣', 'city': '高雄市', 'county': '茂林區', 'latitude': '22.92005', 'longitude': '120.75237'},{'province': '台灣', 'city': '花蓮縣', 'county': '萬榮鄉', 'latitude': '23.73333', 'longitude': '121.31667'},{'province': '台灣', 'city': '澎湖縣', 'county': '馬公市', 'latitude': '23.5634', 'longitude': '119.58683'},{'province': '台灣', 'city': '新竹縣', 'county': '五峰鄉', 'latitude': '24.58333', 'longitude': '121.13333'},{'province': '台灣', 'city': '屏東縣', 'county': '萬丹鄉', 'latitude': '22.58333', 'longitude': '120.46667'},{'province': '台灣', 'city': '台東縣', 'county': '東河鄉', 'latitude': '22.98333', 'longitude': '121.25'},{'province': '台灣', 'city': '雲林縣', 'county': '臺西鄉', 'latitude': '23.71667', 'longitude': '120.2'},{'province': '台灣', 'city': '高雄市', 'county': '大寮區', 'latitude': '22.58333', 'longitude': '120.4'},{'province': '台灣', 'city': '台南市', 'county': '關廟區', 'latitude': '22.95824', 'longitude': '120.33171'},{'province': '台灣', 'city': '新北市', 'county': '汐止區', 'latitude': '25.08333', 'longitude': '121.65'},{'province': '台灣', 'city': '高雄市', 'county': '岡山區', 'latitude': '22.8', 'longitude': '120.3'},{'province': '台灣', 'city': '台南市', 'county': '新化區', 'latitude': '23.03333', 'longitude': '120.33333'},{'province': '台灣', 'city': '台南市', 'county': '柳營區', 'latitude': '23.28333', 'longitude': '120.35'},{'province': '台灣', 'city': '屏東縣', 'county': '崁頂鄉', 'latitude': '22.51667', 'longitude': '120.48333'},{'province': '台灣', 'city': '新竹市', 'county': '北區', 'latitude': '24.81641', 'longitude': '120.94934'},{'province': '台灣', 'city': '雲林縣', 'county': '東勢鄉', 'latitude': '23.7', 'longitude': '120.25'},{'province': '台灣', 'city': '臺中市', 'county': '南區', 'latitude': '24.12118', 'longitude': '120.66465'},{'province': '台灣', 'city': '台南市', 'county': '大內區', 'latitude': '23.15', 'longitude': '120.38333'},{'province': '台灣', 'city': '雲林縣', 'county': '褒忠鄉', 'latitude': '23.71667', 'longitude': '120.3'},{'province': '台灣', 'city': '高雄市', 'county': '鳳山區', 'latitude': '22.61667', 'longitude': '120.35'},{'province': '台灣', 'city': '台南市', 'county': '北區', 'latitude': '23.01011', 'longitude': '120.20592'},{'province': '台灣', 'city': '臺中市', 'county': '大甲區', 'latitude': '24.36194', 'longitude': '120.62833'},{'province': '台灣', 'city': '屏東縣', 'county': '恆春鎮', 'latitude': '22', 'longitude': '120.75'},{'province': '台灣', 'city': '台南市', 'county': '安南區', 'latitude': '23.04877', 'longitude': '120.1526'},{'province': '台灣', 'city': '新北市', 'county': '烏來區', 'latitude': '24.8', 'longitude': '121.53333'},{'province': '台灣', 'city': '高雄市', 'county': '前鎮區', 'latitude': '22.5924', 'longitude': '120.31246'},{'province': '台灣', 'city': '新北市', 'county': '淡水區', 'latitude': '25.2', 'longitude': '121.45'},{'province': '台灣', 'city': '嘉義縣', 'county': '阿里山鄉', 'latitude': '23.44091', 'longitude': '120.75965'},{'province': '台灣', 'city': '雲林縣', 'county': '莿桐鄉', 'latitude': '23.76667', 'longitude': '120.53333'},{'province': '台灣', 'city': '嘉義縣', 'county': '番路鄉', 'latitude': '23.43333', 'longitude': '120.6'},{'province': '台灣', 'city': '新竹縣', 'county': '竹北市', 'latitude': '24.83333', 'longitude': '121'},{'province': '台灣', 'city': '彰化縣', 'county': '鹿港鎮', 'latitude': '24.08333', 'longitude': '120.45'},{'province': '台灣', 'city': '花蓮縣', 'county': '秀林鄉', 'latitude': '24.1', 'longitude': '121.48333'},{'province': '台灣', 'city': '宜蘭縣', 'county': '壯圍鄉', 'latitude': '24.76667', 'longitude': '121.8'},{'province': '台灣', 'city': '嘉義縣', 'county': '東石鄉', 'latitude': '23.46667', 'longitude': '120.18333'},{'province': '台灣', 'city': '高雄市', 'county': '甲仙區', 'latitude': '23.11667', 'longitude': '120.61667'},{'province': '台灣', 'city': '高雄市', 'county': '楠梓區', 'latitude': '22.7208', 'longitude': '120.30037'},{'province': '台灣', 'city': '雲林縣', 'county': '林內鄉', 'latitude': '23.75', 'longitude': '120.61667'},{'province': '台灣', 'city': '臺中市', 'county': '清水區', 'latitude': '24.27361', 'longitude': '120.58'},{'province': '台灣', 'city': '苗栗縣', 'county': '公館鄉', 'latitude': '24.5', 'longitude': '120.83333'},{'province': '台灣', 'city': '台南市', 'county': '歸仁區', 'latitude': '22.95', 'longitude': '120.28333'},{'province': '台灣', 'city': '高雄市', 'county': '鹽埕區', 'latitude': '22.62394', 'longitude': '120.28442'},{'province': '台灣', 'city': '新北市', 'county': '三芝區', 'latitude': '25.23333', 'longitude': '121.51667'},{'province': '台灣', 'city': '新竹縣', 'county': '芎林鄉', 'latitude': '24.76667', 'longitude': '121.1'},{'province': '台灣', 'city': '高雄市', 'county': '橋頭區', 'latitude': '22.75', 'longitude': '120.3'},{'province': '台灣', 'city': '台南市', 'county': '麻豆區', 'latitude': '23.2', 'longitude': '120.23333'},{'province': '台灣', 'city': '臺中市', 'county': '潭子區', 'latitude': '24.21611', 'longitude': '120.70611'},{'province': '福建省', 'city': '金門縣', 'county': '烏坵鄉', 'latitude': '24.99189', 'longitude': '119.45263'},{'province': '台灣', 'city': '台北市', 'county': '中山區', 'latitude': '25.06667', 'longitude': '121.53333'},{'province': '台灣', 'city': '苗栗縣', 'county': '頭屋鄉', 'latitude': '24.56667', 'longitude': '120.86667'},{'province': '台灣', 'city': '台南市', 'county': '東區', 'latitude': '22.98189', 'longitude': '120.22819'},{'province': '台灣', 'city': '台北市', 'county': '大安區', 'latitude': '25.03333', 'longitude': '121.53333'},{'province': '台灣', 'city': '新北市', 'county': '永和區', 'latitude': '25.00897', 'longitude': '121.52007'},{'province': '台灣', 'city': '台北市', 'county': '中正區', 'latitude': '25.04097', 'longitude': '121.51634'},{'province': '台灣', 'city': '桃園市', 'county': '大園區', 'latitude': '25.06667', 'longitude': '121.2'},{'province': '台灣', 'city': '屏東縣', 'county': '春日鄉', 'latitude': '22.38333', 'longitude': '120.7'},{'province': '台灣', 'city': '宜蘭縣', 'county': '礁溪鄉', 'latitude': '24.81667', 'longitude': '121.73333'},{'province': '台灣', 'city': '台北市', 'county': '萬華區', 'latitude': '25.02937', 'longitude': '121.49735'},{'province': '台灣', 'city': '雲林縣', 'county': '西螺鎮', 'latitude': '23.78333', 'longitude': '120.45'},{'province': '台灣', 'city': '臺中市', 'county': '西屯區', 'latitude': '24.17432', 'longitude': '120.62576'},{'province': '台灣', 'city': '屏東縣', 'county': '三地門鄉', 'latitude': '22.8', 'longitude': '120.68333'},{'province': '台灣', 'city': '雲林縣', 'county': '斗南鎮', 'latitude': '23.68333', 'longitude': '120.48333'},{'province': '台灣', 'city': '彰化縣', 'county': '竹塘鄉', 'latitude': '23.86667', 'longitude': '120.4'},{'province': '台灣', 'city': '台東縣', 'county': '海端鄉', 'latitude': '23.13333', 'longitude': '121.03333'},{'province': '台灣', 'city': '台南市', 'county': '安定區', 'latitude': '23.09568', 'longitude': '120.22236'},{'province': '台灣', 'city': '新北市', 'county': '金山區', 'latitude': '25.21667', 'longitude': '121.6'},{'province': '台灣', 'city': '基隆市', 'county': '仁愛區', 'latitude': '25.12', 'longitude': '121.74333'},{'province': '台灣', 'city': '彰化縣', 'county': '永靖鄉', 'latitude': '23.93333', 'longitude': '120.53333'},{'province': '台灣', 'city': '新北市', 'county': '新店區', 'latitude': '24.93333', 'longitude': '121.51667'},{'province': '台灣', 'city': '雲林縣', 'county': '水林鄉', 'latitude': '23.56667', 'longitude': '120.23333'},{'province': '台灣', 'city': '台南市', 'county': '鹽水區', 'latitude': '23.3', 'longitude': '120.233'},{'province': '台灣', 'city': '高雄市', 'county': '三民區', 'latitude': '22.64992', 'longitude': '120.31789'},{'province': '台灣', 'city': '屏東縣', 'county': '獅子鄉', 'latitude': '22.23333', 'longitude': '120.75'},{'province': '台灣', 'city': '台東縣', 'county': '池上鄉', 'latitude': '23.1', 'longitude': '121.21667'},{'province': '台灣', 'city': '嘉義縣', 'county': '布袋鎮', 'latitude': '23.38333', 'longitude': '120.18333'},{'province': '台灣', 'city': '新竹縣', 'county': '橫山鄉', 'latitude': '24.71667', 'longitude': '121.13333'},{'province': '台灣', 'city': '高雄市', 'county': '林園區', 'latitude': '22.51667', 'longitude': '120.38333'},{'province': '台灣', 'city': '屏東縣', 'county': '瑪家鄉', 'latitude': '22.66667', 'longitude': '120.68333'},{'province': '台灣', 'city': '台南市', 'county': '新營區', 'latitude': '23.3', 'longitude': '120.28333'},{'province': '台灣', 'city': '高雄市', 'county': '路竹區', 'latitude': '22.85', 'longitude': '120.26667'},{'province': '台灣', 'city': '臺中市', 'county': '大里區', 'latitude': '24.09833', 'longitude': '120.68583'},{'province': '台灣', 'city': '嘉義縣', 'county': '鹿草鄉', 'latitude': '23.4', 'longitude': '120.3'},{'province': '台灣', 'city': '高雄市', 'county': '阿蓮區', 'latitude': '22.86667', 'longitude': '120.31667'},{'province': '台灣', 'city': '花蓮縣', 'county': '卓溪鄉', 'latitude': '23.4', 'longitude': '121.16667'},{'province': '台灣', 'city': '桃園市', 'county': '新屋區', 'latitude': '24.98333', 'longitude': '121.06667'},{'province': '台灣', 'city': '桃園市', 'county': '大溪區', 'latitude': '24.86667', 'longitude': '121.28333'},{'province': '台灣', 'city': '台北市', 'county': '南港區', 'latitude': '25.03333', 'longitude': '121.6'},{'province': '台灣', 'city': '新北市', 'county': '板橋區', 'latitude': '25.01667', 'longitude': '121.45'},{'province': '台灣', 'city': '高雄市', 'county': '大樹區', 'latitude': '22.71667', 'longitude': '120.41667'},{'province': '台灣', 'city': '新北市', 'county': '鶯歌區', 'latitude': '24.95', 'longitude': '121.33333'},{'province': '台灣', 'city': '新北市', 'county': '瑞芳區', 'latitude': '25.1', 'longitude': '121.81667'},{'province': '台灣', 'city': '彰化縣', 'county': '北斗鎮', 'latitude': '23.86667', 'longitude': '120.53333'},{'province': '台灣', 'city': '花蓮縣', 'county': '富里鄉', 'latitude': '23.21667', 'longitude': '121.3'},{'province': '台灣', 'city': '台北市', 'county': '士林區', 'latitude': '25.13333', 'longitude': '121.55'},{'province': '台灣', 'city': '臺中市', 'county': '豐原區', 'latitude': '24.25', 'longitude': '120.73333'},{'province': '台灣', 'city': '宜蘭縣', 'county': '宜蘭市', 'latitude': '24.75032', 'longitude': '121.75692'},{'province': '台灣', 'city': '宜蘭縣', 'county': '頭城鎮', 'latitude': '24.9', 'longitude': '121.85'},{'province': '台灣', 'city': '南投縣', 'county': '名間鄉', 'latitude': '23.85', 'longitude': '120.66667'},{'province': '台灣', 'city': '台北市', 'county': '文山區', 'latitude': '25', 'longitude': '121.55'},{'province': '台灣', 'city': '基隆市', 'county': '中山區', 'latitude': '25.15009', 'longitude': '121.7329'},{'province': '台灣', 'city': '台南市', 'county': '中西區', 'latitude': '22.99528', 'longitude': '120.19355'},{'province': '台灣', 'city': '南投縣', 'county': '水里鄉', 'latitude': '23.81667', 'longitude': '120.85'},{'province': '台灣', 'city': '臺中市', 'county': '大肚區', 'latitude': '24.15139', 'longitude': '120.54639'},{'province': '台灣', 'city': '台東縣', 'county': '蘭嶼鄕', 'latitude': '22.04639', 'longitude': '121.53833'},{'province': '台灣', 'city': '台南市', 'county': '六甲區', 'latitude': '23.21667', 'longitude': '120.36667'},{'province': '台灣', 'city': '臺中市', 'county': '和平區', 'latitude': '24.28333', 'longitude': '121.16667'},{'province': '台灣', 'city': '高雄市', 'county': '那瑪夏區', 'latitude': '23.26342', 'longitude': '120.72108'},{'province': '台灣', 'city': '台南市', 'county': '山上區', 'latitude': '23.1', 'longitude': '120.36667'},{'province': '台灣', 'city': '彰化縣', 'county': '芳苑鄉', 'latitude': '23.96667', 'longitude': '120.35'},{'province': '台灣', 'city': '台南市', 'county': '安平區', 'latitude': '22.9898', 'longitude': '120.16422'},{'province': '台灣', 'city': '桃園市', 'county': '平鎮區', 'latitude': '24.93333', 'longitude': '121.21667'},{'province': '台灣', 'city': '宜蘭縣', 'county': '三星鄉', 'latitude': '24.68333', 'longitude': '121.65'},{'province': '台灣', 'city': '台南市', 'county': '佳里區', 'latitude': '23.16667', 'longitude': '120.18333'},{'province': '台灣', 'city': '嘉義縣', 'county': '中埔鄉', 'latitude': '23.4', 'longitude': '120.53333'},{'province': '台灣', 'city': '彰化縣', 'county': '線西鄉', 'latitude': '24.1375', 'longitude': '120.46917'},{'province': '台灣', 'city': '新竹縣', 'county': '新豐鄉', 'latitude': '24.9', 'longitude': '120.98333'},{'province': '台灣', 'city': '新竹縣', 'county': '竹東鎮', 'latitude': '24.73333', 'longitude': '121.08333'},{'province': '台灣', 'city': '花蓮縣', 'county': '玉里鎮', 'latitude': '23.38333', 'longitude': '121.35'},{'province': '台灣', 'city': '苗栗縣', 'county': '泰安鄉', 'latitude': '24.41667', 'longitude': '121.06667'},{'province': '台灣', 'city': '彰化縣', 'county': '大城鄉', 'latitude': '23.86667', 'longitude': '120.31667'},{'province': '台灣', 'city': '基隆市', 'county': '信義區', 'latitude': '25.12586', 'longitude': '121.77263'},{'province': '台灣', 'city': '彰化縣', 'county': '福興鄉', 'latitude': '24.03333', 'longitude': '120.43333'},{'province': '台灣', 'city': '台北市', 'county': '內湖區', 'latitude': '25.08333', 'longitude': '121.58333'},{'province': '台灣', 'city': '彰化縣', 'county': '大村鄉', 'latitude': '24', 'longitude': '120.55'},{'province': '台灣', 'city': '臺中市', 'county': '大雅區', 'latitude': '24.22417', 'longitude': '120.64778'},{'province': '台灣', 'city': '嘉義縣', 'county': '六腳鄉', 'latitude': '23.51667', 'longitude': '120.26667'},{'province': '台灣', 'city': '基隆市', 'county': '暖暖區', 'latitude': '25.08103', 'longitude': '121.74476'},{'province': '台灣', 'city': '屏東縣', 'county': '車城鄉', 'latitude': '22.08333', 'longitude': '120.75'},{'province': '台灣', 'city': '彰化縣', 'county': '伸港鄉', 'latitude': '24.17194', 'longitude': '120.49'},{'province': '福建省', 'city': '金門縣', 'county': '金湖鎮', 'latitude': '24.44322', 'longitude': '118.41707'},{'province': '台灣', 'city': '臺中市', 'county': '南屯區', 'latitude': '24.14157', 'longitude': '120.61795'},{'province': '台灣', 'city': '嘉義縣', 'county': '溪口鄉', 'latitude': '23.6', 'longitude': '120.4'},{'province': '福建省', 'city': '連江縣', 'county': '南竿鄉', 'latitude': '26.14954', 'longitude': '119.92821'},{'province': '台灣', 'city': '台南市', 'county': '龍崎區', 'latitude': '22.96667', 'longitude': '120.38333'},{'province': '台灣', 'city': '雲林縣', 'county': '古坑鄉', 'latitude': '23.65', 'longitude': '120.58333'},{'province': '台灣', 'city': '桃園市', 'county': '楊梅區', 'latitude': '24.91667', 'longitude': '121.11667'},{'province': '台灣', 'city': '澎湖縣', 'county': '七美鄉', 'latitude': '23.21137', 'longitude': '119.43169'},{'province': '台灣', 'city': '台東縣', 'county': '太麻里鄉', 'latitude': '22.58333', 'longitude': '120.98333'},{'province': '台灣', 'city': '宜蘭縣', 'county': '五結鄉', 'latitude': '24.68333', 'longitude': '121.8'},{'province': '台灣', 'city': '新北市', 'county': '新莊區', 'latitude': '25.03333', 'longitude': '121.45'},{'province': '台灣', 'city': '屏東縣', 'county': '枋寮鄉', 'latitude': '22.4', 'longitude': '120.6'},{'province': '台灣', 'city': '台東縣', 'county': '大武鄉', 'latitude': '22.4', 'longitude': '120.88333'},{'province': '福建省', 'city': '金門縣', 'county': '金寧鄉', 'latitude': '24.45714', 'longitude': '118.32802'},{'province': '台灣', 'city': '宜蘭縣', 'county': '南澳鄉', 'latitude': '24.46667', 'longitude': '121.65'},{'province': '台灣', 'city': '彰化縣', 'county': '二林鎮', 'latitude': '23.91667', 'longitude': '120.4'},{'province': '台灣', 'city': '南投縣', 'county': '中寮鄉', 'latitude': '23.91667', 'longitude': '120.78333'},{'province': '台灣', 'city': '桃園市', 'county': '觀音區', 'latitude': '25.03333', 'longitude': '121.11667'},{'province': '台灣', 'city': '彰化縣', 'county': '秀水鄉', 'latitude': '24.03333', 'longitude': '120.5'},{'province': '台灣', 'city': '台北市', 'county': '北投區', 'latitude': '25.15', 'longitude': '121.51667'},{'province': '台灣', 'city': '新北市', 'county': '貢寮區', 'latitude': '25.03333', 'longitude': '121.91667'},{'province': '台灣', 'city': '台東縣', 'county': '成功鎮', 'latitude': '23.11667', 'longitude': '121.35'},{'province': '台灣', 'city': '嘉義縣', 'county': '大林鎮', 'latitude': '23.6', 'longitude': '120.48333'},{'province': '台灣', 'city': '南投縣', 'county': '埔里鎮', 'latitude': '23.98333', 'longitude': '120.93333'},{'province': '台灣', 'city': '彰化縣', 'county': '埤頭鄉', 'latitude': '23.88333', 'longitude': '120.46667'},{'province': '台灣', 'city': '新竹縣', 'county': '尖石鄉', 'latitude': '24.61667', 'longitude': '121.26667'},{'province': '台灣', 'city': '宜蘭縣', 'county': '冬山鄉', 'latitude': '24.65', 'longitude': '121.75'},{'province': '台灣', 'city': '臺中市', 'county': '石岡區', 'latitude': '24.26667', 'longitude': '120.78333'},{'province': '台灣', 'city': '桃園市', 'county': '龍潭區', 'latitude': '24.86667', 'longitude': '121.2'},{'province': '台灣', 'city': '高雄市', 'county': '苓雅區', 'latitude': '22.6234', 'longitude': '120.32015'},{'province': '台灣', 'city': '新北市', 'county': '土城區', 'latitude': '24.96667', 'longitude': '121.43333'},{'province': '台灣', 'city': '澎湖縣', 'county': '白沙鄉', 'latitude': '23.66667', 'longitude': '119.58333'},{'province': '台灣', 'city': '苗栗縣', 'county': '三義鄕', 'latitude': '24.38333', 'longitude': '120.76667'},{'province': '台灣', 'city': '高雄市', 'county': '杉林區', 'latitude': '23', 'longitude': '120.55'},{'province': '台灣', 'city': '屏東縣', 'county': '林邊鄉', 'latitude': '22.43547', 'longitude': '120.51607'},{'province': '台灣', 'city': '台南市', 'county': '北門區', 'latitude': '23.28333', 'longitude': '120.13333'},{'province': '台灣', 'city': '雲林縣', 'county': '虎尾鎮', 'latitude': '23.71667', 'longitude': '120.43333'},{'province': '台灣', 'city': '新北市', 'county': '平溪區', 'latitude': '25.03333', 'longitude': '121.75'},{'province': '福建省', 'city': '連江縣', 'county': '莒光鄉', 'latitude': '25.97518', 'longitude': '119.93328'},{'province': '台灣', 'city': '新竹縣', 'county': '關西鎮', 'latitude': '24.78333', 'longitude': '121.18333'},{'province': '台灣', 'city': '新竹縣', 'county': '峨眉鄉', 'latitude': '24.68333', 'longitude': '121'},{'province': '台灣', 'city': '雲林縣', 'county': '斗六市', 'latitude': '23.71639', 'longitude': '120.55028'},{'province': '台灣', 'city': '嘉義縣', 'county': '大埔鄉', 'latitude': '23.3', 'longitude': '120.58333'},{'province': '台灣', 'city': '新北市', 'county': '石碇區', 'latitude': '24.95', 'longitude': '121.63333'},{'province': '台灣', 'city': '台東縣', 'county': '延平鄉', 'latitude': '22.9', 'longitude': '120.98333'},{'province': '台灣', 'city': '新竹市', 'county': '香山區', 'latitude': '24.78333', 'longitude': '120.93333'},{'province': '台灣', 'city': '新北市', 'county': '林口區', 'latitude': '25.1', 'longitude': '121.35'},{'province': '台灣', 'city': '苗栗縣', 'county': '造橋鄉', 'latitude': '24.63333', 'longitude': '120.86667'},{'province': '台灣', 'city': '雲林縣', 'county': '元長鄉', 'latitude': '23.65', 'longitude': '120.31667'},{'province': '台灣', 'city': '高雄市', 'county': '大社區', 'latitude': '22.75', 'longitude': '120.36667'},{'province': '台灣', 'city': '雲林縣', 'county': '北港鎮', 'latitude': '23.6', 'longitude': '120.28333'},{'province': '台灣', 'city': '台北市', 'county': '大同區', 'latitude': '25.06609', 'longitude': '121.51551'},{'province': '台灣', 'city': '新北市', 'county': '萬里區', 'latitude': '25.18333', 'longitude': '121.63333'},{'province': '台灣', 'city': '新北市', 'county': '深坑區', 'latitude': '25', 'longitude': '121.61667'},{'province': '台灣', 'city': '嘉義市', 'county': '西區', 'latitude': '23.47957', 'longitude': '120.42488'},{'province': '台灣', 'city': '高雄市', 'county': '湖內區', 'latitude': '22.9', 'longitude': '120.21667'},{'province': '台灣', 'city': '台南市', 'county': '將軍區', 'latitude': '23.2', 'longitude': '120.11667'},{'province': '台灣', 'city': '台南市', 'county': '後壁區', 'latitude': '23.36667', 'longitude': '120.35'},{'province': '台灣', 'city': '台南市', 'county': '善化區', 'latitude': '23.15', 'longitude': '120.28333'},{'province': '台灣', 'city': '雲林縣', 'county': '二崙鄉', 'latitude': '23.78333', 'longitude': '120.4'},{'province': '台灣', 'city': '苗栗縣', 'county': '苑裡鎮', 'latitude': '24.41667', 'longitude': '120.68333'},{'province': '台灣', 'city': '台北市', 'county': '信義區', 'latitude': '25.03042', 'longitude': '121.56336'},{'province': '台灣', 'city': '臺中市', 'county': '北屯區', 'latitude': '24.1841', 'longitude': '120.7362'},{'province': '台灣', 'city': '高雄市', 'county': '前金區', 'latitude': '22.6271', 'longitude': '120.29449'},{'province': '台灣', 'city': '台南市', 'county': '左鎮區', 'latitude': '23.03333', 'longitude': '120.4'},{'province': '台灣', 'city': '宜蘭縣', 'county': '大同鄉', 'latitude': '24.55', 'longitude': '121.5'},{'province': '台灣', 'city': '新北市', 'county': '泰山區', 'latitude': '25.05', 'longitude': '121.41667'},{'province': '台灣', 'city': '桃園市', 'county': '復興區', 'latitude': '24.71667', 'longitude': '121.36667'},{'province': '台灣', 'city': '南投縣', 'county': '南投市', 'latitude': '23.9218', 'longitude': '120.67881'},{'province': '台灣', 'city': '台東縣', 'county': '達仁鄉', 'latitude': '22.36667', 'longitude': '120.81667'},{'province': '台灣', 'city': '彰化縣', 'county': '和美鎮', 'latitude': '24.11222', 'longitude': '120.4975'},{'province': '台灣', 'city': '苗栗縣', 'county': '苗栗市', 'latitude': '24.56393', 'longitude': '120.81122'},{'province': '台灣', 'city': '台南市', 'county': '七股區', 'latitude': '23.13333', 'longitude': '120.11667'},{'province': '台灣', 'city': '屏東縣', 'county': '新園鄉', 'latitude': '22.51667', 'longitude': '120.45'},{'province': '台灣', 'city': '臺中市', 'county': '東勢區', 'latitude': '24.25028', 'longitude': '120.83333'},{'province': '台灣', 'city': '屏東縣', 'county': '里港鄉', 'latitude': '22.8', 'longitude': '120.5'},{'province': '台灣', 'city': '台北市', 'county': '松山區', 'latitude': '25.05', 'longitude': '121.55'},{'province': '台灣', 'city': '高雄市', 'county': '鳥松區', 'latitude': '22.66667', 'longitude': '120.36667'},{'province': '台灣', 'city': '苗栗縣', 'county': '頭份鎮', 'latitude': '24.68333', 'longitude': '120.91667'},{'province': '台灣', 'city': '花蓮縣', 'county': '新城鄉', 'latitude': '24.04333', 'longitude': '121.60973'},{'province': '台灣', 'city': '桃園市', 'county': '蘆竹區', 'latitude': '25.06667', 'longitude': '121.28333'},{'province': '台灣', 'city': '南投縣', 'county': '竹山鎮', 'latitude': '23.71667', 'longitude': '120.7'},{'province': '台灣', 'city': '屏東縣', 'county': '長治鄉', 'latitude': '22.7', 'longitude': '120.55'},{'province': '台灣', 'city': '臺中市', 'county': '后里區', 'latitude': '24.31667', 'longitude': '120.7'},{'province': '台灣', 'city': '台南市', 'county': '南區', 'latitude': '22.95574', 'longitude': '120.18993'},{'province': '台灣', 'city': '新北市', 'county': '三峽區', 'latitude': '24.88333', 'longitude': '121.4'},{'province': '台灣', 'city': '苗栗縣', 'county': '南庄鄉', 'latitude': '24.56667', 'longitude': '121.01667'},{'province': '台灣', 'city': '臺中市', 'county': '沙鹿區', 'latitude': '24.23722', 'longitude': '120.56028'},{'province': '台灣', 'city': '宜蘭縣', 'county': '員山鄉', 'latitude': '24.75', 'longitude': '121.68333'},{'province': '台灣', 'city': '台東縣', 'county': '鹿野鄉', 'latitude': '22.95', 'longitude': '121.15'},{'province': '台灣', 'city': '屏東縣', 'county': '潮州鎮', 'latitude': '22.53333', 'longitude': '120.55'},{'province': '台灣', 'city': '南投縣', 'county': '仁愛鄉', 'latitude': '24.02528', 'longitude': '121.13111'},{'province': '台灣', 'city': '宜蘭縣', 'county': '蘇澳鎮', 'latitude': '24.59162', 'longitude': '121.85331'},{'province': '台灣', 'city': '澎湖縣', 'county': '望安鄉', 'latitude': '23.35802', 'longitude': '119.4973'},{'province': '台灣', 'city': '屏東縣', 'county': '霧臺鄉', 'latitude': '22.76667', 'longitude': '120.8'},{'province': '台灣', 'city': '桃園市', 'county': '龜山區', 'latitude': '25.03333', 'longitude': '121.35'},{'province': '台灣', 'city': '臺中市', 'county': '外埔區', 'latitude': '24.33333', 'longitude': '120.65'},{'province': '台灣', 'city': '臺中市', 'county': '太平區', 'latitude': '24.11667', 'longitude': '120.76667'},{'province': '台灣', 'city': '新北市', 'county': '中和區', 'latitude': '25', 'longitude': '121.48333'},{'province': '台灣', 'city': '新竹縣', 'county': '寶山鄉', 'latitude': '24.73333', 'longitude': '121'},{'province': '台灣', 'city': '新竹市', 'county': '東區', 'latitude': '24.78988', 'longitude': '120.99182'},{'province': '台灣', 'city': '嘉義市', 'county': '東區', 'latitude': '23.498', 'longitude': '120.46456'},{'province': '台灣', 'city': '台南市', 'county': '西港區', 'latitude': '23.13333', 'longitude': '120.2'},{'province': '台灣', 'city': '屏東縣', 'county': '屏東市', 'latitude': '22.66484', 'longitude': '120.48'},{'province': '台灣', 'city': '彰化縣', 'county': '彰化市', 'latitude': '24.07611', 'longitude': '120.54111'},{'province': '台灣', 'city': '雲林縣', 'county': '口湖鄉', 'latitude': '23.58333', 'longitude': '120.16667'},{'province': '台灣', 'city': '屏東縣', 'county': '東港鎮', 'latitude': '22.46667', 'longitude': '120.46667'},{'province': '台灣', 'city': '桃園市', 'county': '桃園區', 'latitude': '25.0005', 'longitude': '121.29966'},{'province': '台灣', 'city': '苗栗縣', 'county': '竹南鎮', 'latitude': '24.7', 'longitude': '120.86667'},{'province': '台灣', 'city': '雲林縣', 'county': '麥寮鄉', 'latitude': '23.78333', 'longitude': '120.25'},{'province': '台灣', 'city': '嘉義縣', 'county': '新港鄉', 'latitude': '23.55', 'longitude': '120.35'},{'province': '台灣', 'city': '高雄市', 'county': '左營區', 'latitude': '22.68502', 'longitude': '120.29201'},{'province': '台灣', 'city': '高雄市', 'county': '永安區', 'latitude': '22.81667', 'longitude': '120.23333'},{'province': '台灣', 'city': '基隆市', 'county': '中正區', 'latitude': '25.14223', 'longitude': '121.76762'},{'province': '台灣', 'city': '屏東縣', 'county': '高樹鄉', 'latitude': '22.8', 'longitude': '120.58333'},{'province': '台灣', 'city': '屏東縣', 'county': '琉球鄉', 'latitude': '22.35', 'longitude': '120.36667'},{'province': '台灣', 'city': '南投縣', 'county': '魚池鄉', 'latitude': '23.88333', 'longitude': '120.91667'},{'province': '台灣', 'city': '南投縣', 'county': '國姓鄉', 'latitude': '24.01667', 'longitude': '120.85'},{'province': '台灣', 'city': '新北市', 'county': '蘆洲區', 'latitude': '25.08333', 'longitude': '121.46667'},{'province': '台灣', 'city': '花蓮縣', 'county': '吉安鄉', 'latitude': '23.95', 'longitude': '121.56667'},{'province': '台灣', 'city': '花蓮縣', 'county': '壽豐鄉', 'latitude': '23.83333', 'longitude': '121.51667'},{'province': '台灣', 'city': '高雄市', 'county': '田寮區', 'latitude': '22.86667', 'longitude': '120.38333'},{'province': '台灣', 'city': '新北市', 'county': '雙溪區', 'latitude': '25', 'longitude': '121.81667'},{'province': '台灣', 'city': '高雄市', 'county': '小港區', 'latitude': '22.55', 'longitude': '120.35'},{'province': '台灣', 'city': '新北市', 'county': '八里區', 'latitude': '25.15', 'longitude': '121.4'},{'province': '台灣', 'city': '屏東縣', 'county': '泰武鄉', 'latitude': '22.6', 'longitude': '120.68333'},{'province': '台灣', 'city': '高雄市', 'county': '內門區', 'latitude': '22.96667', 'longitude': '120.46667'},{'province': '台灣', 'city': '高雄市', 'county': '仁武區', 'latitude': '22.7', 'longitude': '120.35'},{'province': '台灣', 'city': '彰化縣', 'county': '社頭鄉', 'latitude': '23.91667', 'longitude': '120.6'},{'province': '台灣', 'city': '彰化縣', 'county': '田尾鄉', 'latitude': '23.9', 'longitude': '120.51667'},{'province': '台灣', 'city': '臺中市', 'county': '新社區', 'latitude': '24.18333', 'longitude': '120.81667'},{'province': '台灣', 'city': '台南市', 'county': '東山區', 'latitude': '23.28333', 'longitude': '120.43333'},{'province': '台灣', 'city': '台東縣', 'county': '綠島鄕', 'latitude': '22.66667', 'longitude': '121.48333'},{'province': '台灣', 'city': '屏東縣', 'county': '來義鄉', 'latitude': '22.5', 'longitude': '120.68333'},{'province': '台灣', 'city': '花蓮縣', 'county': '瑞穗鄉', 'latitude': '23.51667', 'longitude': '121.4'},{'province': '台灣', 'city': '臺中市', 'county': '中區', 'latitude': '24.1418', 'longitude': '120.68053'},{'province': '台灣', 'city': '苗栗縣', 'county': '獅潭鄉', 'latitude': '24.53333', 'longitude': '120.91667'},{'province': '台灣', 'city': '屏東縣', 'county': '内埔鄉', 'latitude': '22.66667', 'longitude': '120.58333'},{'province': '台灣', 'city': '新北市', 'county': '石門區', 'latitude': '25.26667', 'longitude': '121.56667'},{'province': '台灣', 'city': '台東縣', 'county': '長濱鄉', 'latitude': '23.33333', 'longitude': '121.41667'},{'province': '台灣', 'city': '屏東縣', 'county': '麟洛鄉', 'latitude': '22.65188', 'longitude': '120.5292'},{'province': '台灣', 'city': '臺中市', 'county': '龍井區', 'latitude': '24.19444', 'longitude': '120.54639'},{'province': '福建省', 'city': '連江縣', 'county': '北竿鄉', 'latitude': '26.23088', 'longitude': '119.9898'},{'province': '台灣', 'city': '屏東縣', 'county': '竹田鄉', 'latitude': '22.59404', 'longitude': '120.5341'},{'province': '台灣', 'city': '臺中市', 'county': '梧棲區', 'latitude': '24.25639', 'longitude': '120.53194'},{'province': '台灣', 'city': '臺中市', 'county': '西區', 'latitude': '24.14392', 'longitude': '120.66467'},{'province': '台灣', 'city': '彰化縣', 'county': '溪州鄉', 'latitude': '23.83333', 'longitude': '120.51667'},{'province': '台灣', 'city': '新竹縣', 'county': '新埔鎮', 'latitude': '24.85', 'longitude': '121.08333'},{'province': '台灣', 'city': '基隆市', 'county': '七堵區', 'latitude': '25.10972', 'longitude': '121.68365'},{'province': '台灣', 'city': '桃園市', 'county': '中壢區', 'latitude': '24.98333', 'longitude': '121.2'},{'province': '台灣', 'city': '嘉義縣', 'county': '梅山鄉', 'latitude': '23.55', 'longitude': '120.63333'},{'province': '台灣', 'city': '屏東縣', 'county': '枋山鄉', 'latitude': '22.25629', 'longitude': '120.65821'},{'province': '台灣', 'city': '宜蘭縣', 'county': '羅東鎮', 'latitude': '24.68333', 'longitude': '121.76667'},{'province': '台灣', 'city': '彰化縣', 'county': '埔鹽鄉', 'latitude': '23.98333', 'longitude': '120.45'},{'province': '台灣', 'city': '台南市', 'county': '南化區', 'latitude': '23.11667', 'longitude': '120.55'},{'province': '台灣', 'city': '苗栗縣', 'county': '三灣鄉', 'latitude': '24.63333', 'longitude': '120.93333'},{'province': '台灣', 'city': '臺中市', 'county': '北區', 'latitude': '24.15878', 'longitude': '120.68075'},{'province': '台灣', 'city': '屏東縣', 'county': '新埤鄉', 'latitude': '22.48333', 'longitude': '120.58333'},{'province': '台灣', 'city': '新北市', 'county': '坪林區', 'latitude': '24.91667', 'longitude': '121.71667'},